$GPTXT,01,01,02,u-blox ag - www.u-blox.com*50
$GPTXT,01,01,02,HW  UBX-G70xx   00070000 *77
$GPTXT,01,01,02,ROM CORE 1.00 (59842) Jun 27 2012 17:43:52*59
$GPTXT,01,01,02,PROTVER 14.00*1E
$GPTXT,01,01,02,ANTSUPERV=AC SD PDoS SR*20
$GPTXT,01,01,02,ANTSTATUS=DONTKNOW*33
$GPTXT,01,01,02,LLC FFFFFFFF-FFFFFFED-FFFFFFFF-FFFFFFFF-FFFFFFF9*50

$GPRMC,,V,,,,,,,,,,N*53
$GPVTG,,,,,,,,,N*30
$GPGGA,,,,,,0,00,99.99,,,,,,*48
$GPGSA,A,1,,,,,,,,,,,,,99.99,99.99,99.99*30
$GPGLL,,,,,,V,N*64

$GPTXT,01,01,02,ANTSTATUS=INIT*25

$GPRMC,,V,,,,,,,,,,N*53
$GPVTG,,,,,,,,,N*30
$GPGGA,,,,,,0,00,99.99,,,,,,*48
$GPGSA,A,1,,,,,,,,,,,,,99.99,99.99,99.99*30
$GPGLL,,,,,,V,N*64

$GPTXT,01,01,02,ANTSTATUS=OK*3B

$GPRMC,,V,,,,,,,,,,N*53
$GPVTG,,,,,,,,,N*30
$GPGGA,,,,,,0,00,99.99,,,,,,*48
$GPGSA,A,1,,,,,,,,,,,,,99.99,99.99,99.99*30
$GPGLL,,,,,,V,N*64

$GPRMC,,V,,,,,,,,,,N*53
$GPVTG,,,,,,,,,N*30
$GPGGA,,,,,,0,00,99.99,,,,,,*48
$GPGSA,A,1,,,,,,,,,,,,,99.99,99.99,99.99*30
$GPGLL,,,,,,V,N*64

$GPRMC,,V,,,,,,,,,,N*53
$GPVTG,,,,,,,,,N*30
$GPGGA,,,,,,0,00,99.99,,,,,,*48
$GPGSA,A,1,,,,,,,,,,,,,99.99,99.99,99.99*30
$GPGSV,1,1,01,17,,,37*7A
$GPGLL,,,,,,V,N*64

$GPRMC,,V,,,,,,,,,,N*53
$GPVTG,,,,,,,,,N*30
$GPGGA,,,,,,0,00,99.99,,,,,,*48
$GPGSA,A,1,,,,,,,,,,,,,99.99,99.99,99.99*30
$GPGSV,1,1,02,17,,,37,19,,,35*77
$GPGLL,,,,,,V,N*64

$GPRMC,,V,,,,,,,,,,N*53
$GPVTG,,,,,,,,,N*30
$GPGGA,,,,,,0,00,99.99,,,,,,*48
$GPGSA,A,1,,,,,,,,,,,,,99.99,99.99,99.99*30
$GPGSV,1,1,02,17,,,37,19,,,34*76
$GPGLL,,,,,,V,N*64

$GPRMC,,V,,,,,,,,,,N*53
$GPVTG,,,,,,,,,N*30
$GPGGA,,,,,,0,00,99.99,,,,,,*48
$GPGSA,A,1,,,,,,,,,,,,,99.99,99.99,99.99*30
$GPGSV,1,1,02,17,,,37,19,,,34*76
$GPGLL,,,,,,V,N*64

$GPRMC,,V,,,,,,,,,,N*53
$GPVTG,,,,,,,,,N*30
$GPGGA,,,,,,0,00,99.99,,,,,,*48
$GPGSA,A,1,,,,,,,,,,,,,99.99,99.99,99.99*30
$GPGSV,1,1,02,17,,,37,19,,,35*77
$GPGLL,,,,,,V,N*64

$GPRMC,,V,,,,,,,,,,N*53
$GPVTG,,,,,,,,,N*30
$GPGGA,,,,,,0,00,99.99,,,,,,*48
$GPGSA,A,1,,,,,,,,,,,,,99.99,99.99,99.99*30
$GPGSV,1,1,02,17,,,38,19,,,35*78
$GPGLL,,,,,,V,N*64

$GPRMC,214809.29,V,,,,,,,,,,N*70
$GPVTG,,,,,,,,,N*30
$GPGGA,214809.29,,,,,0,00,99.99,,,,,,*6B
$GPGSA,A,1,,,,,,,,,,,,,99.99,99.99,99.99*30
$GPGSV,1,1,02,17,,,38,19,,,35*78
$GPGLL,,,,,214809.29,V,N*47

$GPRMC,214810.00,V,,,,,,,,,,N*73
$GPVTG,,,,,,,,,N*30
$GPGGA,214810.00,,,,,0,00,99.99,,,,,,*68
$GPGSA,A,1,,,,,,,,,,,,,99.99,99.99,99.99*30
$GPGSV,1,1,02,17,,,38,19,,,35*78
$GPGLL,,,,,214810.00,V,N*44

$GPRMC,214811.00,V,,,,,,,,,,N*72
$GPVTG,,,,,,,,,N*30
$GPGGA,214811.00,,,,,0,00,99.99,,,,,,*69
$GPGSA,A,1,,,,,,,,,,,,,99.99,99.99,99.99*30
$GPGSV,1,1,03,04,,,20,17,,,38,19,,,35*7F
$GPGLL,,,,,214811.00,V,N*45

$GPRMC,214812.00,V,,,,,,,,,,N*71
$GPVTG,,,,,,,,,N*30
$GPGGA,214812.00,,,,,0,00,99.99,,,,,,*6A
$GPGSA,A,1,,,,,,,,,,,,,99.99,99.99,99.99*30
$GPGSV,1,1,02,17,,,39,19,,,36*7A
$GPGLL,,,,,214812.00,V,N*46

$GPRMC,214813.00,V,,,,,,,,,,N*70
$GPVTG,,,,,,,,,N*30
$GPGGA,214813.00,,,,,0,00,99.99,,,,,,*6B
$GPGSA,A,1,,,,,,,,,,,,,99.99,99.99,99.99*30
$GPGSV,1,1,02,17,,,39,19,,,36*7A
$GPGLL,,,,,214813.00,V,N*47

$GPRMC,214814.00,V,,,,,,,,,,N*77
$GPVTG,,,,,,,,,N*30
$GPGGA,214814.00,,,,,0,00,99.99,,,,,,*6C
$GPGSA,A,1,,,,,,,,,,,,,99.99,99.99,99.99*30
$GPGSV,1,1,03,06,,,27,17,,,39,19,,,36*78
$GPGLL,,,,,214814.00,V,N*40

$GPRMC,214815.00,V,,,,,,,,,,N*76
$GPVTG,,,,,,,,,N*30
$GPGGA,214815.00,,,,,0,00,99.99,,,,,,*6D
$GPGSA,A,1,,,,,,,,,,,,,99.99,99.99,99.99*30
$GPGSV,1,1,02,17,,,39,19,,,36*7A
$GPGLL,,,,,214815.00,V,N*41

$GPRMC,214816.00,V,,,,,,,160418,,,N*7F
$GPVTG,,,,,,,,,N*30
$GPGGA,214816.00,,,,,0,00,99.99,,,,,,*6E
$GPGSA,A,1,,,,,,,,,,,,,99.99,99.99,99.99*30
$GPGSV,1,1,03,07,,,31,17,,,39,19,,,36*7E
$GPGLL,,,,,214816.00,V,N*42

$GPRMC,214817.00,V,,,,,,,160418,,,N*7E
$GPVTG,,,,,,,,,N*30
$GPGGA,214817.00,,,,,0,00,99.99,,,,,,*6F
$GPGSA,A,1,,,,,,,,,,,,,99.99,99.99,99.99*30
$GPGSV,1,1,04,07,,,30,08,,,32,17,,,39,19,,,36*71
$GPGLL,,,,,214817.00,V,N*43

$GPRMC,214818.00,V,,,,,,,160418,,,N*71
$GPVTG,,,,,,,,,N*30
$GPGGA,214818.00,,,,,0,00,99.99,,,,,,*60
$GPGSA,A,1,,,,,,,,,,,,,99.99,99.99,99.99*30
$GPGSV,1,1,04,07,,,29,08,,,32,17,,,39,19,,,36*79
$GPGLL,,,,,214818.00,V,N*4C

$GPRMC,214819.00,V,,,,,,,160418,,,N*70
$GPVTG,,,,,,,,,N*30
$GPGGA,214819.00,,,,,0,00,99.99,,,,,,*61
$GPGSA,A,1,,,,,,,,,,,,,99.99,99.99,99.99*30
$GPGSV,1,1,04,07,,,29,08,,,33,17,,,39,19,,,37*79
$GPGLL,,,,,214819.00,V,N*4D

$GPRMC,214820.00,V,,,,,,,160418,,,N*7A
$GPVTG,,,,,,,,,N*30
$GPGGA,214820.00,,,,,0,00,99.99,,,,,,*6B
$GPGSA,A,1,,,,,,,,,,,,,99.99,99.99,99.99*30
$GPGSV,1,1,04,07,,,28,08,,,33,17,,,39,19,,,37*78
$GPGLL,,,,,214820.00,V,N*47

$GPRMC,214821.00,V,,,,,,,160418,,,N*7B
$GPVTG,,,,,,,,,N*30
$GPGGA,214821.00,,,,,0,00,99.99,,,,,,*6A
$GPGSA,A,1,,,,,,,,,,,,,99.99,99.99,99.99*30
$GPGSV,1,1,04,07,,,27,08,,,33,17,,,39,19,,,37*77
$GPGLL,,,,,214821.00,V,N*46

$GPRMC,214822.00,V,,,,,,,160418,,,N*78
$GPVTG,,,,,,,,,N*30
$GPGGA,214822.00,,,,,0,00,99.99,,,,,,*69
$GPGSA,A,1,,,,,,,,,,,,,99.99,99.99,99.99*30
$GPGSV,1,1,04,07,,,27,08,,,34,17,,,39,19,,,37*70
$GPGLL,,,,,214822.00,V,N*45

$GPRMC,214823.00,V,,,,,,,160418,,,N*79
$GPVTG,,,,,,,,,N*30
$GPGGA,214823.00,,,,,0,00,99.99,,,,,,*68
$GPGSA,A,1,,,,,,,,,,,,,99.99,99.99,99.99*30
$GPGSV,1,1,04,07,,,27,08,,,34,17,,,38,19,,,36*70
$GPGLL,,,,,214823.00,V,N*44

$GPRMC,214824.00,V,,,,,,,160418,,,N*7E
$GPVTG,,,,,,,,,N*30
$GPGGA,214824.00,,,,,0,00,99.99,,,,,,*6F
$GPGSA,A,1,,,,,,,,,,,,,99.99,99.99,99.99*30
$GPGSV,1,1,04,07,,,27,08,,,34,17,,,38,19,,,36*70
$GPGLL,,,,,214824.00,V,N*43

$GPRMC,214825.00,V,,,,,,,160418,,,N*7F
$GPVTG,,,,,,,,,N*30
$GPGGA,214825.00,,,,,0,00,99.99,,,,,,*6E
$GPGSA,A,1,,,,,,,,,,,,,99.99,99.99,99.99*30
$GPGSV,1,1,04,07,,,27,08,,,34,17,,,38,19,,,36*70
$GPGLL,,,,,214825.00,V,N*42

$GPRMC,214826.00,V,,,,,,,160418,,,N*7C
$GPVTG,,,,,,,,,N*30
$GPGGA,214826.00,,,,,0,00,99.99,,,,,,*6D
$GPGSA,A,1,,,,,,,,,,,,,99.99,99.99,99.99*30
$GPGSV,1,1,04,07,,,27,08,,,34,17,,,38,19,,,36*70
$GPGLL,,,,,214826.00,V,N*41

$GPRMC,214827.00,V,,,,,,,160418,,,N*7D
$GPVTG,,,,,,,,,N*30
$GPGGA,214827.00,,,,,0,00,99.99,,,,,,*6C
$GPGSA,A,1,,,,,,,,,,,,,99.99,99.99,99.99*30
$GPGSV,1,1,04,07,,,28,08,,,34,17,,,38,19,,,35*7C
$GPGLL,,,,,214827.00,V,N*40

$GPRMC,214828.00,V,,,,,,,160418,,,N*72
$GPVTG,,,,,,,,,N*30
$GPGGA,214828.00,,,,,0,00,99.99,,,,,,*63
$GPGSA,A,1,,,,,,,,,,,,,99.99,99.99,99.99*30
$GPGSV,1,1,04,07,,,28,08,,,35,17,,,38,19,,,35*7D
$GPGLL,,,,,214828.00,V,N*4F

$GPRMC,214829.00,V,,,,,,,160418,,,N*73
$GPVTG,,,,,,,,,N*30
$GPGGA,214829.00,,,,,0,00,99.99,,,,,,*62
$GPGSA,A,1,,,,,,,,,,,,,99.99,99.99,99.99*30
$GPGSV,2,1,05,07,,,29,08,,,35,17,,,38,18,,,29*72
$GPGSV,2,2,05,19,,,35*72
$GPGLL,,,,,214829.00,V,N*4E

$GPRMC,214830.00,V,,,,,,,160418,,,N*7B
$GPVTG,,,,,,,,,N*30
$GPGGA,214830.00,,,,,0,00,99.99,,,,,,*6A
$GPGSA,A,1,,,,,,,,,,,,,99.99,99.99,99.99*30
$GPGSV,2,1,05,07,,,29,08,,,35,17,,,37,18,,,29*7D
$GPGSV,2,2,05,19,,,35*72
$GPGLL,,,,,214830.00,V,N*46

$GPRMC,214831.00,V,,,,,,,160418,,,N*7A
$GPVTG,,,,,,,,,N*30
$GPGGA,214831.00,,,,,0,00,99.99,,,,,,*6B
$GPGSA,A,1,,,,,,,,,,,,,99.99,99.99,99.99*30
$GPGSV,2,1,05,07,,,29,08,,,35,17,,,37,18,,,29*7D
$GPGSV,2,2,05,19,,,35*72
$GPGLL,,,,,214831.00,V,N*47

$GPRMC,214832.00,V,,,,,,,160418,,,N*79
$GPVTG,,,,,,,,,N*30
$GPGGA,214832.00,,,,,0,00,99.99,,,,,,*68
$GPGSA,A,1,,,,,,,,,,,,,99.99,99.99,99.99*30
$GPGSV,2,1,05,07,,,28,08,,,35,17,,,37,18,,,29*7C
$GPGSV,2,2,05,19,,,35*72
$GPGLL,,,,,214832.00,V,N*44

$GPRMC,214833.00,V,,,,,,,160418,,,N*78
$GPVTG,,,,,,,,,N*30
$GPGGA,214833.00,,,,,0,00,99.99,,,,,,*69
$GPGSA,A,1,,,,,,,,,,,,,99.99,99.99,99.99*30
$GPGSV,2,1,05,07,30,185,28,08,22,064,35,17,34,264,37,18,,,29*46
$GPGSV,2,2,05,19,15,255,35*44
$GPGLL,,,,,214833.00,V,N*45

$GPRMC,214834.00,V,,,,,,,160418,,,N*7F
$GPVTG,,,,,,,,,N*30
$GPGGA,214834.00,,,,,0,00,99.99,,,,,,*6E
$GPGSA,A,1,,,,,,,,,,,,,99.99,99.99,99.99*30
$GPGSV,2,1,05,07,30,185,28,08,22,064,36,17,34,264,37,18,,,29*45
$GPGSV,2,2,05,19,15,255,35*44
$GPGLL,,,,,214834.00,V,N*42

$GPRMC,214835.00,V,,,,,,,160418,,,N*7E
$GPVTG,,,,,,,,,N*30
$GPGGA,214835.00,,,,,0,00,99.99,,,,,,*6F
$GPGSA,A,1,,,,,,,,,,,,,99.99,99.99,99.99*30
$GPGSV,2,1,05,07,30,185,28,08,22,064,36,17,34,264,36,18,,,30*4C
$GPGSV,2,2,05,19,15,255,35*44
$GPGLL,,,,,214835.00,V,N*43

$GPRMC,214836.00,V,,,,,,,160418,,,N*7D
$GPVTG,,,,,,,,,N*30
$GPGGA,214836.00,,,,,0,00,99.99,,,,,,*6C
$GPGSA,A,1,,,,,,,,,,,,,99.99,99.99,99.99*30
$GPGSV,2,1,06,07,30,185,28,08,22,064,36,17,34,264,36,18,,,31*4E
$GPGSV,2,2,06,19,15,255,35,48,15,249,37*74
$GPGLL,,,,,214836.00,V,N*40

$GPRMC,214837.00,V,,,,,,,160418,,,N*7C
$GPVTG,,,,,,,,,N*30
$GPGGA,214837.00,,,,,0,00,99.99,,,,,,*6D
$GPGSA,A,1,,,,,,,,,,,,,99.99,99.99,99.99*30
$GPGSV,2,1,06,07,30,185,28,08,22,064,36,17,34,264,36,18,,,32*4D
$GPGSV,2,2,06,19,15,255,35,48,15,249,37*74
$GPGLL,,,,,214837.00,V,N*41

$GPRMC,214838.00,V,,,,,,,160418,,,N*73
$GPVTG,,,,,,,,,N*30
$GPGGA,214838.00,,,,,0,00,99.99,,,,,,*62
$GPGSA,A,1,,,,,,,,,,,,,99.99,99.99,99.99*30
$GPGSV,2,1,06,07,30,185,28,08,22,064,36,17,34,264,36,18,,,32*4D
$GPGSV,2,2,06,19,15,255,35,48,15,249,37*74
$GPGLL,,,,,214838.00,V,N*4E

$GPRMC,214839.00,V,,,,,,,160418,,,N*72
$GPVTG,,,,,,,,,N*30
$GPGGA,214839.00,,,,,0,00,99.99,,,,,,*63
$GPGSA,A,1,,,,,,,,,,,,,99.99,99.99,99.99*30
$GPGSV,2,1,06,07,30,185,28,08,22,064,36,17,34,264,36,18,,,33*4C
$GPGSV,2,2,06,19,15,255,36,48,15,249,37*77
$GPGLL,,,,,214839.00,V,N*4F

$GPRMC,214840.00,V,,,,,,,160418,,,N*7C
$GPVTG,,,,,,,,,N*30
$GPGGA,214840.00,,,,,0,00,99.99,,,,,,*6D
$GPGSA,A,1,,,,,,,,,,,,,99.99,99.99,99.99*30
$GPGSV,2,1,06,07,30,185,28,08,22,064,37,17,34,264,35,18,,,33*4E
$GPGSV,2,2,06,19,15,255,36,48,15,249,37*77
$GPGLL,,,,,214840.00,V,N*41

$GPRMC,214841.00,V,,,,,,,160418,,,N*7D
$GPVTG,,,,,,,,,N*30
$GPGGA,214841.00,,,,,0,00,99.99,,,,,,*6C
$GPGSA,A,1,,,,,,,,,,,,,99.99,99.99,99.99*30
$GPGSV,2,1,07,07,30,185,29,08,22,064,37,17,34,264,34,18,,,34*48
$GPGSV,2,2,07,19,15,255,37,24,,,28,48,15,249,37*7B
$GPGLL,,,,,214841.00,V,N*40

$GPRMC,214842.00,V,,,,,,,160418,,,N*7E
$GPVTG,,,,,,,,,N*30
$GPGGA,214842.00,,,,,0,00,99.99,,,,,,*6F
$GPGSA,A,1,,,,,,,,,,,,,99.99,99.99,99.99*30
$GPGSV,2,1,06,07,30,185,29,08,22,064,37,17,34,264,35,18,,,34*48
$GPGSV,2,2,06,19,15,255,37,48,15,249,37*76
$GPGLL,,,,,214842.00,V,N*43

$GPRMC,214843.00,V,,,,,,,160418,,,N*7F
$GPVTG,,,,,,,,,N*30
$GPGGA,214843.00,,,,,0,00,99.99,,,,,,*6E
$GPGSA,A,1,,,,,,,,,,,,,99.99,99.99,99.99*30
$GPGSV,2,1,06,07,30,185,29,08,22,064,36,17,34,264,35,18,,,34*49
$GPGSV,2,2,06,19,15,255,37,48,15,249,37*76
$GPGLL,,,,,214843.00,V,N*42

$GPRMC,214844.00,V,,,,,,,160418,,,N*78
$GPVTG,,,,,,,,,N*30
$GPGGA,214844.00,,,,,0,00,99.99,,,,,,*69
$GPGSA,A,1,,,,,,,,,,,,,99.99,99.99,99.99*30
$GPGSV,2,1,06,07,30,185,30,08,22,064,36,17,34,264,34,18,,,34*40
$GPGSV,2,2,06,19,15,255,38,48,15,249,37*79
$GPGLL,,,,,214844.00,V,N*45

$GPRMC,214845.00,V,,,,,,,160418,,,N*79
$GPVTG,,,,,,,,,N*30
$GPGGA,214845.00,,,,,0,00,99.99,,,,,,*68
$GPGSA,A,1,,,,,,,,,,,,,99.99,99.99,99.99*30
$GPGSV,2,1,07,07,30,185,31,08,22,064,36,17,34,264,35,18,,,34*41
$GPGSV,2,2,07,19,15,255,38,30,,,30,48,15,249,37*78
$GPGLL,,,,,214845.00,V,N*44

$GPRMC,214846.00,V,,,,,,,160418,,,N*7A
$GPVTG,,,,,,,,,N*30
$GPGGA,214846.00,,,,,0,00,99.99,,,,,,*6B
$GPGSA,A,1,,,,,,,,,,,,,99.99,99.99,99.99*30
$GPGSV,2,1,07,07,30,185,31,08,22,064,36,17,34,264,35,18,,,34*41
$GPGSV,2,2,07,19,15,255,38,30,,,29,48,15,249,37*70
$GPGLL,,,,,214846.00,V,N*47

$GPRMC,214847.00,V,,,,,,,160418,,,N*7B
$GPVTG,,,,,,,,,N*30
$GPGGA,214847.00,,,,,0,00,99.99,,,,,,*6A
$GPGSA,A,1,,,,,,,,,,,,,99.99,99.99,99.99*30
$GPGSV,2,1,08,01,,,26,07,30,185,32,08,22,064,35,17,34,264,35*45
$GPGSV,2,2,08,18,,,34,19,15,255,39,30,,,29,48,15,249,37*70
$GPGLL,,,,,214847.00,V,N*46

$GPRMC,214848.00,V,,,,,,,160418,,,N*74
$GPVTG,,,,,,,,,N*30
$GPGGA,214848.00,,,,,0,00,99.99,,,,,,*65
$GPGSA,A,1,,,,,,,,,,,,,99.99,99.99,99.99*30
$GPGSV,2,1,08,01,,,25,07,30,185,32,08,22,064,35,17,34,264,35*46
$GPGSV,2,2,08,18,,,34,19,15,255,39,30,,,28,48,15,249,37*71
$GPGLL,,,,,214848.00,V,N*49

$GPRMC,214849.00,V,,,,,,,160418,,,N*75
$GPVTG,,,,,,,,,N*30
$GPGGA,214849.00,,,,,0,00,99.99,,,,,,*64
$GPGSA,A,1,,,,,,,,,,,,,99.99,99.99,99.99*30
$GPGSV,2,1,08,01,,,26,07,30,185,32,08,22,064,35,17,34,264,34*44
$GPGSV,2,2,08,18,,,34,19,15,255,39,30,,,29,48,15,249,37*70
$GPGLL,,,,,214849.00,V,N*48

$GPRMC,214850.00,V,,,,,,,160418,,,N*7D
$GPVTG,,,,,,,,,N*30
$GPGGA,214850.00,,,,,0,00,99.99,,,,,,*6C
$GPGSA,A,1,,,,,,,,,,,,,99.99,99.99,99.99*30
$GPGSV,2,1,08,01,,,26,07,30,185,32,08,22,064,35,17,34,264,35*45
$GPGSV,2,2,08,18,,,34,19,15,255,39,30,,,29,48,15,249,37*70
$GPGLL,,,,,214850.00,V,N*40

$GPRMC,214850.50,A,4044.21658,N,07402.05187,W,0.026,,160418,,,A*65
$GPVTG,,T,,M,0.026,N,0.048,K,A*2B
$GPGGA,214850.50,4044.21658,N,07402.05187,W,1,04,1.47,40.6,M,-34.4,M,,*5D
$GPGSA,A,3,17,19,07,08,,,,,,,,,4.70,1.47,4.46*04
$GPGSV,2,1,08,01,,,26,07,30,185,32,08,22,064,35,17,34,264,35*45
$GPGSV,2,2,08,18,,,34,19,15,255,39,30,,,29,48,15,249,37*70
$GPGLL,4044.21658,N,07402.05187,W,214850.50,A,A*72

$GPRMC,214851.00,A,4044.21558,N,07402.05154,W,0.025,,160418,,,A*6F
$GPVTG,,T,,M,0.025,N,0.047,K,A*27
$GPGGA,214851.00,4044.21558,N,07402.05154,W,1,04,1.47,40.6,M,-34.4,M,,*54
$GPGSA,A,3,17,19,07,08,,,,,,,,,4.70,1.47,4.46*04
$GPGSV,2,1,08,01,,,27,07,30,185,32,08,22,064,35,17,34,264,35*44
$GPGSV,2,2,08,18,,,33,19,15,255,39,30,,,29,48,15,249,37*77
$GPGLL,4044.21558,N,07402.05154,W,214851.00,A,A*7B

$GPRMC,214852.00,A,4044.21577,N,07402.05167,W,0.030,,160418,,,A*65
$GPVTG,,T,,M,0.030,N,0.055,K,A*20
$GPGGA,214852.00,4044.21577,N,07402.05167,W,1,04,1.47,40.3,M,-34.4,M,,*5F
$GPGSA,A,3,17,19,07,08,,,,,,,,,4.70,1.47,4.46*04
$GPGSV,2,1,08,01,,,27,07,30,185,32,08,22,064,34,17,34,264,35*45
$GPGSV,2,2,08,18,,,33,19,15,255,39,30,,,28,48,15,249,37*76
$GPGLL,4044.21577,N,07402.05167,W,214852.00,A,A*75

$GPRMC,214853.00,A,4044.21546,N,07402.05162,W,0.025,,160418,,,A*67
$GPVTG,,T,,M,0.025,N,0.046,K,A*26
$GPGGA,214853.00,4044.21546,N,07402.05162,W,1,04,1.47,40.4,M,-34.4,M,,*5E
$GPGSA,A,3,17,19,07,08,,,,,,,,,4.70,1.47,4.46*04
$GPGSV,2,1,08,01,,,27,07,30,185,31,08,22,064,34,17,34,264,35*46
$GPGSV,2,2,08,18,,,32,19,15,255,39,30,,,28,48,15,249,37*77
$GPGLL,4044.21546,N,07402.05162,W,214853.00,A,A*73

$GPRMC,214854.00,A,4044.21542,N,07402.05169,W,0.037,,160418,,,A*6C
$GPVTG,,T,,M,0.037,N,0.068,K,A*29
$GPGGA,214854.00,4044.21542,N,07402.05169,W,1,04,1.47,40.3,M,-34.4,M,,*51
$GPGSA,A,3,17,19,07,08,,,,,,,,,4.70,1.47,4.46*04
$GPGSV,2,1,08,01,,,27,07,30,185,31,08,22,064,33,17,34,264,34*40
$GPGSV,2,2,08,18,,,31,19,15,255,38,30,,,27,48,15,249,37*7A
$GPGLL,4044.21542,N,07402.05169,W,214854.00,A,A*7B

$GPRMC,214855.00,A,4044.21540,N,07402.05178,W,0.033,,160418,,,A*6B
$GPVTG,,T,,M,0.033,N,0.061,K,A*24
$GPGGA,214855.00,4044.21540,N,07402.05178,W,1,04,1.47,40.1,M,-34.4,M,,*50
$GPGSA,A,3,17,19,07,08,,,,,,,,,4.70,1.47,4.46*04
$GPGSV,2,1,08,01,,,27,07,30,185,30,08,22,064,33,17,34,264,34*41
$GPGSV,2,2,08,18,,,30,19,15,255,38,30,,,27,48,15,249,37*7B
$GPGLL,4044.21540,N,07402.05178,W,214855.00,A,A*78

$GPRMC,214856.00,A,4044.21498,N,07402.05169,W,0.155,,160418,,,A*6D
$GPVTG,,T,,M,0.155,N,0.286,K,A*2E
$GPGGA,214856.00,4044.21498,N,07402.05169,W,1,04,1.47,39.8,M,-34.4,M,,*50
$GPGSA,A,3,17,19,07,08,,,,,,,,,4.70,1.47,4.46*04
$GPGSV,2,1,08,01,,,27,07,30,185,30,08,22,064,33,17,34,264,35*40
$GPGSV,2,2,08,18,,,30,19,15,255,38,30,,,27,48,15,249,37*7B
$GPGLL,4044.21498,N,07402.05169,W,214856.00,A,A*7F

$GPRMC,214857.00,A,4044.21454,N,07402.05158,W,0.079,,160418,,,A*61
$GPVTG,,T,,M,0.079,N,0.146,K,A*2E
$GPGGA,214857.00,4044.21454,N,07402.05158,W,1,04,1.47,39.4,M,-34.4,M,,*5F
$GPGSA,A,3,17,19,07,08,,,,,,,,,4.70,1.47,4.46*04
$GPGSV,2,1,08,01,,,28,07,30,185,29,08,22,064,32,17,34,264,35*46
$GPGSV,2,2,08,18,,,29,19,15,255,38,30,,,27,48,15,249,37*73
$GPGLL,4044.21454,N,07402.05158,W,214857.00,A,A*7C

$GPRMC,214858.00,A,4044.21427,N,07402.05154,W,0.036,,160418,,,A*6D
$GPVTG,,T,,M,0.036,N,0.066,K,A*26
$GPGGA,214858.00,4044.21427,N,07402.05154,W,1,04,1.47,38.8,M,-34.4,M,,*55
$GPGSA,A,3,17,19,07,08,,,,,,,,,4.70,1.47,4.46*04
$GPGSV,2,1,08,01,,,27,07,30,185,29,08,22,064,31,17,34,264,34*4B
$GPGSV,2,2,08,18,,,29,19,15,255,37,30,,,28,48,15,249,37*73
$GPGLL,4044.21427,N,07402.05154,W,214858.00,A,A*7B

$GPRMC,214859.00,A,4044.21407,N,07402.05154,W,0.061,,160418,,,A*6C
$GPVTG,,T,,M,0.061,N,0.113,K,A*27
$GPGGA,214859.00,4044.21407,N,07402.05154,W,1,04,1.47,37.9,M,-34.4,M,,*58
$GPGSA,A,3,17,19,07,08,,,,,,,,,4.70,1.47,4.46*04
$GPGSV,2,1,08,01,,,27,07,30,185,29,08,22,064,30,17,34,264,34*4A
$GPGSV,2,2,08,18,,,28,19,15,255,37,30,,,28,48,15,249,37*72
$GPGLL,4044.21407,N,07402.05154,W,214859.00,A,A*78

$GPRMC,214900.00,A,4044.21373,N,07402.05150,W,0.122,,160418,,,A*67
$GPVTG,,T,,M,0.122,N,0.225,K,A*27
$GPGGA,214900.00,4044.21373,N,07402.05150,W,1,04,1.47,37.0,M,-34.4,M,,*5C
$GPGSA,A,3,17,19,07,08,,,,,,,,,4.70,1.47,4.46*04
$GPGSV,2,1,08,01,,,27,07,30,185,29,08,22,064,29,17,34,264,34*42
$GPGSV,2,2,08,18,,,27,19,15,255,37,30,,,28,48,15,249,36*7C
$GPGLL,4044.21373,N,07402.05150,W,214900.00,A,A*75

$GPRMC,214901.00,A,4044.21345,N,07402.05148,W,0.054,,160418,,,A*6A
$GPVTG,,T,,M,0.054,N,0.100,K,A*23
$GPGGA,214901.00,4044.21345,N,07402.05148,W,1,04,1.47,36.3,M,-34.4,M,,*53
$GPGSA,A,3,17,19,07,08,,,,,,,,,4.70,1.47,4.46*04
$GPGSV,2,1,08,01,,,28,07,30,185,29,08,22,064,28,17,34,264,33*4B
$GPGSV,2,2,08,18,,,25,19,15,255,36,30,,,29,48,15,249,36*7E
$GPGLL,4044.21345,N,07402.05148,W,214901.00,A,A*78

$GPRMC,214902.00,A,4044.21324,N,07402.05151,W,0.180,,160418,,,A*6E
$GPVTG,,T,,M,0.180,N,0.333,K,A*29
$GPGGA,214902.00,4044.21324,N,07402.05151,W,1,04,1.47,35.5,M,-34.4,M,,*5A
$GPGSA,A,3,17,19,07,08,,,,,,,,,4.70,1.47,4.46*04
$GPGSV,2,1,08,01,,,28,07,30,185,30,08,22,064,27,17,34,264,34*4B
$GPGSV,2,2,08,18,,,24,19,15,255,36,30,,,29,48,15,249,36*7F
$GPGLL,4044.21324,N,07402.05151,W,214902.00,A,A*74

$GPRMC,214903.00,A,4044.21304,N,07402.05153,W,0.068,,160418,,,A*68
$GPVTG,,T,,M,0.068,N,0.126,K,A*28
$GPGGA,214903.00,4044.21304,N,07402.05153,W,1,04,1.47,34.6,M,-34.4,M,,*59
$GPGSA,A,3,17,19,07,08,,,,,,,,,4.70,1.47,4.46*04
$GPGSV,2,1,08,01,,,28,07,30,185,31,08,22,064,26,17,34,264,34*4B
$GPGSV,2,2,08,18,,,23,19,15,255,36,30,50,211,29,48,15,249,36*4F
$GPGLL,4044.21304,N,07402.05153,W,214903.00,A,A*75

$GPRMC,214904.00,A,4044.21274,N,07402.05174,W,1.114,,160418,,,A*67
$GPVTG,,T,,M,1.114,N,2.064,K,A*26
$GPGGA,214904.00,4044.21274,N,07402.05174,W,1,04,1.47,33.9,M,-34.4,M,,*55
$GPGSA,A,3,17,19,07,08,,,,,,,,,4.70,1.47,4.46*04
$GPGSV,2,1,08,01,,,28,07,30,185,32,08,22,064,24,17,34,264,34*4A
$GPGSV,2,2,08,18,,,22,19,15,255,36,30,50,211,30,48,15,249,37*47
$GPGLL,4044.21274,N,07402.05174,W,214904.00,A,A*71

$GPRMC,214905.00,A,4044.21252,N,07402.05213,W,1.291,280.86,160418,,,A*74
$GPVTG,280.86,T,,M,1.291,N,2.390,K,A*3A
$GPGGA,214905.00,4044.21252,N,07402.05213,W,1,04,1.47,32.8,M,-34.4,M,,*52
$GPGSA,A,3,17,19,07,08,,,,,,,,,4.70,1.47,4.46*04
$GPGSV,2,1,08,01,,,28,07,30,185,32,08,22,064,22,17,34,264,35*4D
$GPGSV,2,2,08,18,,,21,19,15,255,37,30,50,211,31,48,15,249,37*44
$GPGLL,4044.21252,N,07402.05213,W,214905.00,A,A*76

$GPRMC,214906.00,A,4044.21229,N,07402.05248,W,1.352,252.59,160418,,,A*76
$GPVTG,252.59,T,,M,1.352,N,2.503,K,A*35
$GPGGA,214906.00,4044.21229,N,07402.05248,W,1,04,1.47,32.0,M,-34.4,M,,*5B
$GPGSA,A,3,17,19,07,08,,,,,,,,,4.70,1.47,4.46*04
$GPGSV,2,1,08,01,,,27,07,30,185,32,08,22,064,21,17,34,264,34*40
$GPGSV,2,2,08,18,,,19,19,15,255,36,30,50,211,30,48,15,249,37*4F
$GPGLL,4044.21229,N,07402.05248,W,214906.00,A,A*77

$GPRMC,214907.00,A,4044.21239,N,07402.05264,W,0.161,,160418,,,A*6C
$GPVTG,,T,,M,0.161,N,0.298,K,A*26
$GPGGA,214907.00,4044.21239,N,07402.05264,W,1,04,1.47,30.7,M,-34.4,M,,*50
$GPGSA,A,3,17,19,07,08,,,,,,,,,4.70,1.47,4.46*04
$GPGSV,2,1,08,01,,,26,07,30,185,33,08,22,064,19,17,34,264,35*4A
$GPGSV,2,2,08,18,,,16,19,15,255,36,30,50,211,30,48,15,249,37*40
$GPGLL,4044.21239,N,07402.05264,W,214907.00,A,A*79

$GPRMC,214908.00,A,4044.21229,N,07402.05288,W,0.312,,160418,,,A*66
$GPVTG,,T,,M,0.312,N,0.578,K,A*29
$GPGGA,214908.00,4044.21229,N,07402.05288,W,1,04,1.47,29.4,M,-34.4,M,,*57
$GPGSA,A,3,17,19,07,08,,,,,,,,,4.70,1.47,4.46*04
$GPGSV,2,1,08,01,,,26,07,30,185,33,08,22,064,20,17,34,264,35*40
$GPGSV,2,2,08,18,,,12,19,15,255,37,30,50,211,30,48,15,249,37*45
$GPGLL,4044.21229,N,07402.05288,W,214908.00,A,A*75

$GPRMC,214909.00,A,4044.21222,N,07402.05309,W,0.784,,160418,,,A*6F
$GPVTG,,T,,M,0.784,N,1.452,K,A*2A
$GPGGA,214909.00,4044.21222,N,07402.05309,W,1,04,1.47,28.2,M,-34.4,M,,*52
$GPGSA,A,3,17,19,07,08,,,,,,,,,4.70,1.47,4.46*04
$GPGSV,2,1,08,01,,,25,07,30,185,34,08,22,064,21,17,34,264,35*45
$GPGSV,2,2,08,18,,,10,19,15,255,37,30,50,211,30,48,15,249,37*47
$GPGLL,4044.21222,N,07402.05309,W,214909.00,A,A*77

$GPRMC,214910.00,A,4044.21222,N,07402.05319,W,0.777,,160418,,,A*6A
$GPVTG,,T,,M,0.777,N,1.439,K,A*2B
$GPGGA,214910.00,4044.21222,N,07402.05319,W,1,04,1.47,27.0,M,-34.4,M,,*56
$GPGSA,A,3,17,19,07,08,,,,,,,,,4.70,1.47,4.46*04
$GPGSV,2,1,08,01,,,24,07,30,185,34,08,22,064,23,17,34,264,34*47
$GPGSV,2,2,08,18,,,08,19,15,255,37,30,50,211,30,48,15,249,37*4E
$GPGLL,4044.21222,N,07402.05319,W,214910.00,A,A*7E

$GPRMC,214911.00,A,4044.21223,N,07402.05329,W,0.201,,160418,,,A*6D
$GPVTG,,T,,M,0.201,N,0.372,K,A*26
$GPGGA,214911.00,4044.21223,N,07402.05329,W,1,04,1.47,25.8,M,-34.4,M,,*5F
$GPGSA,A,3,17,19,07,08,,,,,,,,,4.70,1.47,4.47*05
$GPGSV,2,1,08,01,,,22,07,30,185,34,08,22,064,25,17,34,264,34*47
$GPGSV,2,2,08,18,,,08,19,15,255,37,30,50,211,30,48,15,249,37*4E
$GPGLL,4044.21223,N,07402.05329,W,214911.00,A,A*7D

$GPRMC,214912.00,A,4044.21201,N,07402.05364,W,0.878,,160418,,,A*63
$GPVTG,,T,,M,0.878,N,1.626,K,A*27
$GPGGA,214912.00,4044.21201,N,07402.05364,W,1,04,1.47,25.1,M,-34.4,M,,*5C
$GPGSA,A,3,17,19,07,08,,,,,,,,,4.70,1.47,4.47*05
$GPGSV,2,1,08,01,,,22,07,30,185,35,08,22,064,26,17,34,264,34*45
$GPGSV,2,2,08,18,,,08,19,15,255,37,30,50,211,29,48,15,249,36*47
$GPGLL,4044.21201,N,07402.05364,W,214912.00,A,A*77

$GPRMC,214913.00,A,4044.21206,N,07402.05365,W,0.447,,160418,,,A*64
$GPVTG,,T,,M,0.447,N,0.828,K,A*26
$GPGGA,214913.00,4044.21206,N,07402.05365,W,1,04,1.47,24.5,M,-34.4,M,,*5E
$GPGSA,A,3,17,19,07,08,,,,,,,,,4.70,1.47,4.47*05
$GPGSV,2,1,08,01,,,20,07,30,185,35,08,22,064,27,17,34,264,34*46
$GPGSV,2,2,08,18,,,08,19,15,255,38,30,50,211,29,48,15,249,36*48
$GPGLL,4044.21206,N,07402.05365,W,214913.00,A,A*70

$GPRMC,214914.00,A,4044.21260,N,07402.05313,W,0.190,,160418,,,A*6D
$GPVTG,,T,,M,0.190,N,0.353,K,A*2E
$GPGGA,214914.00,4044.21260,N,07402.05313,W,1,04,1.47,23.2,M,-34.4,M,,*58
$GPGSA,A,3,17,19,07,08,,,,,,,,,4.70,1.47,4.47*05
$GPGSV,2,1,08,01,,,18,07,30,185,35,08,22,064,28,17,34,264,33*45
$GPGSV,2,2,08,18,,,08,19,15,255,38,30,50,211,29,48,15,249,37*49
$GPGLL,4044.21260,N,07402.05313,W,214914.00,A,A*76

$GPRMC,214915.00,A,4044.21276,N,07402.05302,W,0.153,,160418,,,A*64
$GPVTG,,T,,M,0.153,N,0.284,K,A*2A
$GPGGA,214915.00,4044.21276,N,07402.05302,W,1,04,1.47,22.3,M,-34.4,M,,*5E
$GPGSA,A,3,17,19,07,08,,,,,,,,,4.70,1.47,4.47*05
$GPGSV,2,1,08,01,,,16,07,30,185,35,08,22,064,28,17,34,264,33*4B
$GPGSV,2,2,08,18,,,08,19,15,255,38,30,50,211,29,48,15,249,37*49
$GPGLL,4044.21276,N,07402.05302,W,214915.00,A,A*70

$GPRMC,214916.00,A,4044.21293,N,07402.05298,W,0.242,,160418,,,A*6D
$GPVTG,,T,,M,0.242,N,0.448,K,A*2F
$GPGGA,214916.00,4044.21293,N,07402.05298,W,1,04,1.47,21.6,M,-34.4,M,,*52
$GPGSA,A,3,17,19,07,08,,,,,,,,,4.70,1.47,4.47*05
$GPGSV,2,1,08,01,,,14,07,30,185,36,08,22,064,29,17,34,264,33*4B
$GPGSV,2,2,08,18,,,07,19,15,255,38,30,50,211,29,48,15,249,37*46
$GPGLL,4044.21293,N,07402.05298,W,214916.00,A,A*7A

$GPRMC,214917.00,A,4044.21324,N,07402.05277,W,0.180,,160418,,,A*6D
$GPVTG,,T,,M,0.180,N,0.334,K,A*2E
$GPGGA,214917.00,4044.21324,N,07402.05277,W,1,04,1.47,20.9,M,-34.4,M,,*51
$GPGSA,A,3,17,19,07,08,,,,,,,,,4.70,1.47,4.47*05
$GPGSV,2,1,08,01,,,12,07,30,185,36,08,22,064,30,17,34,264,33*45
$GPGSV,2,2,08,18,,,07,19,15,255,38,30,50,211,28,48,15,249,37*47
$GPGLL,4044.21324,N,07402.05277,W,214917.00,A,A*77

$GPRMC,214918.00,A,4044.21369,N,07402.05235,W,0.229,,160418,,,A*6D
$GPVTG,,T,,M,0.229,N,0.425,K,A*29
$GPGGA,214918.00,4044.21369,N,07402.05235,W,1,04,1.47,20.1,M,-34.4,M,,*59
$GPGSA,A,3,17,19,07,08,,,,,,,,,4.70,1.47,4.47*05
$GPGSV,2,1,07,07,30,185,36,08,22,064,31,17,34,264,33,18,,,07*47
$GPGSV,2,2,07,19,15,255,38,30,50,211,28,48,15,249,37*46
$GPGLL,4044.21369,N,07402.05235,W,214918.00,A,A*77

$GPRMC,214919.00,A,4044.21405,N,07402.05199,W,0.140,,160418,,,A*68
$GPVTG,,T,,M,0.140,N,0.259,K,A*28
$GPGGA,214919.00,4044.21405,N,07402.05199,W,1,04,1.47,19.4,M,-34.4,M,,*5F
$GPGSA,A,3,17,19,07,08,,,,,,,,,4.70,1.47,4.47*05
$GPGSV,2,1,07,07,30,185,36,08,22,064,32,17,34,264,33,18,,,07*44
$GPGSV,2,2,07,19,15,255,38,30,50,211,28,48,15,249,36*47
$GPGLL,4044.21405,N,07402.05199,W,214919.00,A,A*7E

$GPRMC,214920.00,A,4044.21435,N,07402.05166,W,0.193,,160418,,,A*6F
$GPVTG,,T,,M,0.193,N,0.357,K,A*29
$GPGGA,214920.00,4044.21435,N,07402.05166,W,1,04,1.47,18.9,M,-34.4,M,,*5A
$GPGSA,A,3,17,19,07,08,,,,,,,,,4.70,1.47,4.47*05
$GPGSV,2,1,07,07,30,185,36,08,22,064,33,17,34,264,33,18,,,07*45
$GPGSV,2,2,07,19,15,255,38,30,50,211,27,48,15,249,36*48
$GPGLL,4044.21435,N,07402.05166,W,214920.00,A,A*77

$GPRMC,214921.00,A,4044.21466,N,07402.05132,W,0.112,,160418,,,A*60
$GPVTG,,T,,M,0.112,N,0.207,K,A*24
$GPGGA,214921.00,4044.21466,N,07402.05132,W,1,05,1.47,17.8,M,-34.4,M,,*53
$GPGSA,A,3,17,19,30,07,08,,,,,,,,3.25,1.47,2.90*0D
$GPGSV,2,1,07,07,30,185,36,08,22,064,33,17,34,264,34,18,,,07*42
$GPGSV,2,2,07,19,15,255,38,30,49,211,26,48,15,249,36*41
$GPGLL,4044.21466,N,07402.05132,W,214921.00,A,A*71

$GPRMC,214922.00,A,4044.21498,N,07402.05097,W,0.185,,160418,,,A*62
$GPVTG,,T,,M,0.185,N,0.344,K,A*2C
$GPGGA,214922.00,4044.21498,N,07402.05097,W,1,05,1.46,16.8,M,-34.4,M,,*5F
$GPGSA,A,3,17,19,30,07,08,,,,,,,,3.25,1.46,2.90*0C
$GPGSV,2,1,07,07,30,185,37,08,22,064,34,17,34,264,34,18,,,07*44
$GPGSV,2,2,07,19,15,255,38,30,49,211,26,48,15,249,37*40
$GPGLL,4044.21498,N,07402.05097,W,214922.00,A,A*7D

$GPRMC,214923.00,A,4044.21517,N,07402.05070,W,0.097,,160418,,,A*6E
$GPVTG,,T,,M,0.097,N,0.181,K,A*25
$GPGGA,214923.00,4044.21517,N,07402.05070,W,1,05,1.46,15.8,M,-34.4,M,,*52
$GPGSA,A,3,17,19,30,07,08,,,,,,,,3.25,1.46,2.90*0C
$GPGSV,2,1,07,07,30,185,37,08,22,065,34,17,34,264,35,18,,,07*44
$GPGSV,2,2,07,19,15,255,38,30,49,211,26,48,15,249,37*40
$GPGLL,4044.21517,N,07402.05070,W,214923.00,A,A*73

$GPRMC,214924.00,A,4044.21533,N,07402.05046,W,0.093,,160418,,,A*6E
$GPVTG,,T,,M,0.093,N,0.173,K,A*2C
$GPGGA,214924.00,4044.21533,N,07402.05046,W,1,05,1.46,15.0,M,-34.4,M,,*5E
$GPGSA,A,3,17,19,30,07,08,,,,,,,,3.25,1.46,2.90*0C
$GPGSV,2,1,07,07,30,185,37,08,22,065,35,17,34,264,35,18,,,07*45
$GPGSV,2,2,07,19,15,255,38,30,49,211,26,48,15,249,36*41
$GPGLL,4044.21533,N,07402.05046,W,214924.00,A,A*77

$GPRMC,214925.00,A,4044.21543,N,07402.05027,W,0.047,,160418,,,A*66
$GPVTG,,T,,M,0.047,N,0.088,K,A*20
$GPGGA,214925.00,4044.21543,N,07402.05027,W,1,05,1.46,14.0,M,-34.4,M,,*5E
$GPGSA,A,3,17,19,30,07,08,,,,,,,,3.25,1.46,2.90*0C
$GPGSV,2,1,07,07,30,185,37,08,22,065,35,17,34,264,35,18,,,07*45
$GPGSV,2,2,07,19,15,255,38,30,49,211,26,48,15,249,36*41
$GPGLL,4044.21543,N,07402.05027,W,214925.00,A,A*76

$GPRMC,214926.00,A,4044.21551,N,07402.05012,W,0.031,,160418,,,A*61
$GPVTG,,T,,M,0.031,N,0.057,K,A*23
$GPGGA,214926.00,4044.21551,N,07402.05012,W,1,05,1.46,13.1,M,-34.4,M,,*5E
$GPGSA,A,3,17,19,30,07,08,,,,,,,,3.25,1.46,2.90*0C
$GPGSV,2,1,07,07,30,185,37,08,22,065,35,17,34,264,35,18,,,07*45
$GPGSV,2,2,07,19,15,255,38,30,49,211,26,48,15,249,36*41
$GPGLL,4044.21551,N,07402.05012,W,214926.00,A,A*70

$GPRMC,214927.00,A,4044.21562,N,07402.04995,W,0.112,,160418,,,A*67
$GPVTG,,T,,M,0.112,N,0.207,K,A*24
$GPGGA,214927.00,4044.21562,N,07402.04995,W,1,05,1.46,12.0,M,-34.4,M,,*58
$GPGSA,A,3,17,19,30,07,08,,,,,,,,3.25,1.46,2.90*0C
$GPGSV,2,1,07,07,30,185,38,08,22,065,36,17,34,264,36,18,,,07*4A
$GPGSV,2,2,07,19,15,255,38,30,49,211,27,48,15,249,36*40
$GPGLL,4044.21562,N,07402.04995,W,214927.00,A,A*76

$GPRMC,214928.00,A,4044.21569,N,07402.04982,W,0.026,,160418,,,A*63
$GPVTG,,T,,M,0.026,N,0.049,K,A*2A
$GPGGA,214928.00,4044.21569,N,07402.04982,W,1,05,1.46,11.0,M,-34.4,M,,*59
$GPGSA,A,3,17,19,30,07,08,,,,,,,,3.25,1.46,2.91*0D
$GPGSV,2,1,07,07,30,185,38,08,22,065,36,17,34,264,36,18,,,34*4A
$GPGSV,2,2,07,19,15,255,38,30,49,211,28,48,15,249,36*4F
$GPGLL,4044.21569,N,07402.04982,W,214928.00,A,A*74

$GPRMC,214929.00,A,4044.21582,N,07402.04977,W,0.046,,160418,,,A*6B
$GPVTG,,T,,M,0.046,N,0.085,K,A*2C
$GPGGA,214929.00,4044.21582,N,07402.04977,W,1,05,1.46,10.1,M,-34.4,M,,*57
$GPGSA,A,3,17,19,30,07,08,,,,,,,,3.25,1.46,2.91*0D
$GPGSV,2,1,07,07,30,185,39,08,22,065,36,17,34,264,36,18,,,34*4B
$GPGSV,2,2,07,19,15,255,38,30,49,211,28,48,15,249,36*4F
$GPGLL,4044.21582,N,07402.04977,W,214929.00,A,A*7A

$GPRMC,214930.00,A,4044.21596,N,07402.04972,W,0.034,,160418,,,A*66
$GPVTG,,T,,M,0.034,N,0.063,K,A*21
$GPGGA,214930.00,4044.21596,N,07402.04972,W,1,05,1.46,9.1,M,-34.4,M,,*67
$GPGSA,A,3,17,19,30,07,08,,,,,,,,3.25,1.46,2.91*0D
$GPGSV,2,1,07,07,30,185,39,08,22,065,36,17,34,264,36,18,,,34*4B
$GPGSV,2,2,07,19,15,255,38,30,49,211,28,48,15,249,36*4F
$GPGLL,4044.21596,N,07402.04972,W,214930.00,A,A*72

$GPRMC,214931.00,A,4044.21607,N,07402.04969,W,0.083,,160418,,,A*6A
$GPVTG,,T,,M,0.083,N,0.154,K,A*28
$GPGGA,214931.00,4044.21607,N,07402.04969,W,1,05,1.46,8.2,M,-34.4,M,,*65
$GPGSA,A,3,17,19,30,07,08,,,,,,,,3.25,1.46,2.91*0D
$GPGSV,2,1,07,07,30,185,39,08,22,065,36,17,34,264,35,18,,,34*48
$GPGSV,2,2,07,19,15,255,38,30,49,211,28,48,15,249,36*4F
$GPGLL,4044.21607,N,07402.04969,W,214931.00,A,A*72

$GPRMC,214932.00,A,4044.21612,N,07402.04964,W,0.023,,160418,,,A*6A
$GPVTG,,T,,M,0.023,N,0.043,K,A*25
$GPGGA,214932.00,4044.21612,N,07402.04964,W,1,05,1.46,7.4,M,-34.4,M,,*66
$GPGSA,A,3,17,19,30,07,08,,,,,,,,3.25,1.46,2.91*0D
$GPGSV,2,1,07,07,30,185,39,08,22,065,36,17,34,264,35,18,,,33*4F
$GPGSV,2,2,07,19,15,255,37,30,49,211,28,48,15,249,36*40
$GPGLL,4044.21612,N,07402.04964,W,214932.00,A,A*78

$GPRMC,214933.00,A,4044.21618,N,07402.04961,W,0.102,,160418,,,A*66
$GPVTG,,T,,M,0.102,N,0.189,K,A*20
$GPGGA,214933.00,4044.21618,N,07402.04961,W,1,05,1.46,6.7,M,-34.4,M,,*6A
$GPGSA,A,3,17,19,30,07,08,,,,,,,,3.25,1.46,2.91*0D
$GPGSV,2,1,07,07,30,185,39,08,22,065,36,17,34,264,35,18,,,33*4F
$GPGSV,2,2,07,19,15,255,37,30,49,211,27,48,15,249,36*4F
$GPGLL,4044.21618,N,07402.04961,W,214933.00,A,A*76

$GPRMC,214934.00,A,4044.21623,N,07402.04959,W,0.022,,160418,,,A*61
$GPVTG,,T,,M,0.022,N,0.040,K,A*27
$GPGGA,214934.00,4044.21623,N,07402.04959,W,1,05,1.46,6.1,M,-34.4,M,,*68
$GPGSA,A,3,17,19,30,07,08,,,,,,,,3.25,1.46,2.91*0D
$GPGSV,2,1,07,07,30,185,39,08,22,065,36,17,34,264,34,18,,,33*4E
$GPGSV,2,2,07,19,15,255,37,30,49,211,27,48,15,249,36*4F
$GPGLL,4044.21623,N,07402.04959,W,214934.00,A,A*72

$GPRMC,214935.00,A,4044.21627,N,07402.04957,W,0.096,,160418,,,A*65
$GPVTG,,T,,M,0.096,N,0.177,K,A*2D
$GPGGA,214935.00,4044.21627,N,07402.04957,W,1,05,1.46,5.4,M,-34.4,M,,*65
$GPGSA,A,3,17,19,30,07,08,,,,,,,,3.25,1.46,2.91*0D
$GPGSV,2,1,07,07,30,185,39,08,22,065,36,17,34,264,34,18,,,32*4F
$GPGSV,2,2,07,19,15,255,37,30,49,211,28,48,15,249,36*40
$GPGLL,4044.21627,N,07402.04957,W,214935.00,A,A*79

$GPRMC,214936.00,A,4044.21627,N,07402.04955,W,0.078,,160418,,,A*64
$GPVTG,,T,,M,0.078,N,0.145,K,A*2C
$GPGGA,214936.00,4044.21627,N,07402.04955,W,1,05,1.46,4.7,M,-34.4,M,,*66
$GPGSA,A,3,17,19,30,07,08,,,,,,,,3.25,1.46,2.91*0D
$GPGSV,2,1,07,07,30,185,39,08,22,065,36,17,34,264,34,18,,,31*4C
$GPGSV,2,2,07,19,15,255,37,30,49,211,28,48,15,249,36*40
$GPGLL,4044.21627,N,07402.04955,W,214936.00,A,A*78

$GPRMC,214937.00,A,4044.21628,N,07402.04952,W,0.079,,160418,,,A*6C
$GPVTG,,T,,M,0.079,N,0.147,K,A*2F
$GPGGA,214937.00,4044.21628,N,07402.04952,W,1,05,1.46,4.1,M,-34.4,M,,*69
$GPGSA,A,3,17,19,30,07,08,,,,,,,,3.25,1.46,2.91*0D
$GPGSV,2,1,07,07,30,185,39,08,22,065,36,17,34,264,34,18,,,31*4C
$GPGSV,2,2,07,19,15,255,37,30,49,211,28,48,15,249,36*40
$GPGLL,4044.21628,N,07402.04952,W,214937.00,A,A*71

$GPRMC,214938.00,A,4044.21631,N,07402.04948,W,0.016,,160418,,,A*69
$GPVTG,,T,,M,0.016,N,0.030,K,A*27
$GPGGA,214938.00,4044.21631,N,07402.04948,W,1,05,1.46,3.7,M,-34.4,M,,*64
$GPGSA,A,3,17,19,30,07,08,,,,,,,,3.25,1.46,2.91*0D
$GPGSV,2,1,07,07,30,185,38,08,22,065,36,17,34,264,34,18,,,30*4C
$GPGSV,2,2,07,19,15,255,37,30,49,211,27,48,15,249,36*4F
$GPGLL,4044.21631,N,07402.04948,W,214938.00,A,A*7D

$GPRMC,214939.00,A,4044.21633,N,07402.04944,W,0.083,,160418,,,A*6A
$GPVTG,,T,,M,0.083,N,0.154,K,A*28
$GPGGA,214939.00,4044.21633,N,07402.04944,W,1,05,1.46,3.2,M,-34.4,M,,*6E
$GPGSA,A,3,17,19,30,07,08,,,,,,,,3.26,1.46,2.91*0E
$GPGSV,2,1,07,07,30,185,38,08,22,065,36,17,34,264,34,18,,,29*44
$GPGSV,2,2,07,19,15,255,37,30,49,211,28,48,15,249,36*40
$GPGLL,4044.21633,N,07402.04944,W,214939.00,A,A*72

$GPRMC,214940.00,A,4044.21633,N,07402.04940,W,0.051,,160418,,,A*6F
$GPVTG,,T,,M,0.051,N,0.095,K,A*2B
$GPGGA,214940.00,4044.21633,N,07402.04940,W,1,05,1.46,2.8,M,-34.4,M,,*6F
$GPGSA,A,3,17,19,30,07,08,,,,,,,,3.26,1.46,2.91*0E
$GPGSV,2,1,07,07,30,185,38,08,22,065,35,17,34,264,34,18,,,28*46
$GPGSV,2,2,07,19,15,255,37,30,49,211,28,48,15,249,36*40
$GPGLL,4044.21633,N,07402.04940,W,214940.00,A,A*78

$GPRMC,214941.00,A,4044.21635,N,07402.04937,W,0.027,,160418,,,A*69
$GPVTG,,T,,M,0.027,N,0.050,K,A*23
$GPGGA,214941.00,4044.21635,N,07402.04937,W,1,05,1.46,2.4,M,-34.4,M,,*64
$GPGSA,A,3,17,19,30,07,08,,,,,,,,3.26,1.46,2.91*0E
$GPGSV,2,1,07,07,30,185,38,08,22,065,35,17,34,264,33,18,,,27*4E
$GPGSV,2,2,07,19,15,255,37,30,49,211,28,48,15,249,36*40
$GPGLL,4044.21635,N,07402.04937,W,214941.00,A,A*7F

$GPRMC,214942.00,A,4044.21639,N,07402.04933,W,0.022,,160418,,,A*67
$GPVTG,,T,,M,0.022,N,0.040,K,A*27
$GPGGA,214942.00,4044.21639,N,07402.04933,W,1,05,1.46,1.9,M,-34.4,M,,*61
$GPGSA,A,3,17,19,30,07,08,,,,,,,,3.26,1.46,2.91*0E
$GPGSV,2,1,07,07,30,185,38,08,22,065,35,17,34,264,34,18,,,25*4B
$GPGSV,2,2,07,19,15,255,36,30,49,211,28,48,15,249,36*41
$GPGLL,4044.21639,N,07402.04933,W,214942.00,A,A*74

$GPRMC,214943.00,A,4044.21641,N,07402.04931,W,0.042,,160418,,,A*6D
$GPVTG,,T,,M,0.042,N,0.078,K,A*2A
$GPGGA,214943.00,4044.21641,N,07402.04931,W,1,05,1.46,1.6,M,-34.4,M,,*62
$GPGSA,A,3,17,19,30,07,08,,,,,,,,3.26,1.46,2.91*0E
$GPGSV,2,1,07,07,30,185,38,08,22,065,34,17,35,264,34,18,,,23*4D
$GPGSV,2,2,07,19,15,255,36,30,49,211,27,48,15,249,36*4E
$GPGLL,4044.21641,N,07402.04931,W,214943.00,A,A*78

$GPRMC,214944.00,A,4044.21642,N,07402.04929,W,0.053,,160418,,,D*65
$GPVTG,,T,,M,0.053,N,0.099,K,D*20
$GPGGA,214944.00,4044.21642,N,07402.04929,W,2,05,1.46,1.3,M,-34.4,M,,0000*69
$GPGSA,A,3,17,19,30,07,08,,,,,,,,3.26,1.46,2.91*0E
$GPGSV,2,1,07,07,30,185,38,08,22,065,34,17,35,264,34,18,,,20*4E
$GPGSV,2,2,07,19,15,255,36,30,49,211,27,48,15,249,36*4E
$GPGLL,4044.21642,N,07402.04929,W,214944.00,A,D*70

$GPRMC,214945.00,A,4044.21643,N,07402.04928,W,0.036,,160418,,,D*67
$GPVTG,,T,,M,0.036,N,0.067,K,D*22
$GPGGA,214945.00,4044.21643,N,07402.04928,W,2,05,1.46,1.1,M,-34.4,M,,0000*6A
$GPGSA,A,3,17,19,30,07,08,,,,,,,,3.26,1.46,2.91*0E
$GPGSV,2,1,07,07,30,185,38,08,22,065,34,17,35,264,34,18,,,17*4A
$GPGSV,2,2,07,19,15,255,36,30,49,211,26,48,15,249,36*4F
$GPGLL,4044.21643,N,07402.04928,W,214945.00,A,D*71

$GPRMC,214946.00,A,4044.21643,N,07402.04926,W,0.043,,160418,,,D*68
$GPVTG,,T,,M,0.043,N,0.080,K,D*29
$GPGGA,214946.00,4044.21643,N,07402.04926,W,2,05,1.46,0.7,M,-34.4,M,,0000*60
$GPGSA,A,3,17,19,30,07,08,,,,,,,,3.26,1.46,2.91*0E
$GPGSV,2,1,07,07,30,185,38,08,22,065,34,17,35,264,34,18,,,17*4A
$GPGSV,2,2,07,19,15,255,36,30,49,211,27,48,15,249,36*4E
$GPGLL,4044.21643,N,07402.04926,W,214946.00,A,D*7C

$GPRMC,214947.00,A,4044.21645,N,07402.04925,W,0.033,,160418,,,D*6B
$GPVTG,,T,,M,0.033,N,0.062,K,D*22
$GPGGA,214947.00,4044.21645,N,07402.04925,W,2,05,1.46,0.4,M,-34.4,M,,0000*67
$GPGSA,A,3,17,19,30,07,08,,,,,,,,3.26,1.46,2.91*0E
$GPGSV,2,1,07,07,30,185,38,08,22,065,34,17,35,264,34,18,,,18*45
$GPGSV,2,2,07,19,15,255,36,30,49,211,27,48,15,249,37*4F
$GPGLL,4044.21645,N,07402.04925,W,214947.00,A,D*78

$GPRMC,214948.00,A,4044.21646,N,07402.04924,W,0.020,,160418,,,D*64
$GPVTG,,T,,M,0.020,N,0.036,K,D*21
$GPGGA,214948.00,4044.21646,N,07402.04924,W,2,05,1.46,0.1,M,-34.4,M,,0000*6F
$GPGSA,A,3,17,19,30,07,08,,,,,,,,3.26,1.46,2.91*0E
$GPGSV,2,1,07,07,30,185,38,08,22,065,33,17,35,264,34,18,,,22*4B
$GPGSV,2,2,07,19,15,255,36,30,49,211,27,48,15,249,37*4F
$GPGLL,4044.21646,N,07402.04924,W,214948.00,A,D*75

$GPRMC,214949.00,A,4044.21646,N,07402.04923,W,0.042,,160418,,,D*66
$GPVTG,,T,,M,0.042,N,0.077,K,D*20
$GPGGA,214949.00,4044.21646,N,07402.04923,W,2,05,1.46,-0.3,M,-34.4,M,,0000*46
$GPGSA,A,3,17,19,30,07,08,,,,,,,,3.26,1.46,2.91*0E
$GPGSV,2,1,07,07,30,185,38,08,22,065,33,17,35,264,33,18,,,25*4B
$GPGSV,2,2,07,19,15,255,36,30,49,211,27,48,15,249,36*4E
$GPGLL,4044.21646,N,07402.04923,W,214949.00,A,D*73

$GPRMC,214950.00,A,4044.21643,N,07402.04920,W,0.054,,160418,,,D*6F
$GPVTG,,T,,M,0.054,N,0.099,K,D*27
$GPGGA,214950.00,4044.21643,N,07402.04920,W,2,05,1.46,-0.7,M,-34.4,M,,0000*4C
$GPGSA,A,3,17,19,30,07,08,,,,,,,,3.26,1.46,2.91*0E
$GPGSV,2,1,07,07,30,185,38,08,22,065,33,17,35,264,33,18,,,27*49
$GPGSV,2,2,07,19,15,255,35,30,49,211,27,48,15,249,36*4D
$GPGLL,4044.21643,N,07402.04920,W,214950.00,A,D*7D

$GPRMC,214951.00,A,4044.21641,N,07402.04919,W,0.018,,160418,,,D*6E
$GPVTG,,T,,M,0.018,N,0.034,K,D*28
$GPGGA,214951.00,4044.21641,N,07402.04919,W,2,05,1.46,-1.2,M,-34.4,M,,0000*41
$GPGSA,A,3,17,19,30,07,08,,,,,,,,3.26,1.46,2.91*0E
$GPGSV,2,1,07,07,30,185,38,08,22,065,32,17,35,264,33,18,,,28*47
$GPGSV,2,2,07,19,15,255,36,30,49,211,27,48,15,249,36*4E
$GPGLL,4044.21641,N,07402.04919,W,214951.00,A,D*74

$GPRMC,214952.00,A,4044.21639,N,07402.04919,W,0.078,,160418,,,D*64
$GPVTG,,T,,M,0.078,N,0.145,K,D*29
$GPGGA,214952.00,4044.21639,N,07402.04919,W,2,05,1.46,-1.8,M,-34.4,M,,0000*47
$GPGSA,A,3,17,19,30,07,08,,,,,,,,3.26,1.46,2.91*0E
$GPGSV,2,1,07,07,30,185,38,08,22,065,32,17,35,264,34,18,,,29*41
$GPGSV,2,2,07,19,15,255,36,30,49,211,27,48,15,249,36*4E
$GPGLL,4044.21639,N,07402.04919,W,214952.00,A,D*78

$GPRMC,214953.00,A,4044.21636,N,07402.04918,W,0.024,,160418,,,D*62
$GPVTG,,T,,M,0.024,N,0.045,K,D*21
$GPGGA,214953.00,4044.21636,N,07402.04918,W,2,05,1.46,-2.4,M,-34.4,M,,0000*47
$GPGSA,A,3,17,19,30,07,08,,,,,,,,3.26,1.46,2.91*0E
$GPGSV,2,1,07,07,30,185,38,08,22,065,31,17,35,264,34,18,,,29*42
$GPGSV,2,2,07,19,15,255,36,30,49,211,26,48,15,249,36*4F
$GPGLL,4044.21636,N,07402.04918,W,214953.00,A,D*77

$GPRMC,214954.00,A,4044.21633,N,07402.04918,W,0.100,,160418,,,D*67
$GPVTG,,T,,M,0.100,N,0.186,K,D*28
$GPGGA,214954.00,4044.21633,N,07402.04918,W,2,05,1.46,-2.7,M,-34.4,M,,0000*46
$GPGSA,A,3,17,19,30,07,08,,,,,,,,3.26,1.46,2.92*0D
$GPGSV,2,1,07,07,30,185,37,08,22,065,31,17,35,264,34,18,,,30*45
$GPGSV,2,2,07,19,15,255,36,30,49,211,25,48,15,249,36*4C
$GPGLL,4044.21633,N,07402.04918,W,214954.00,A,D*75

$GPRMC,214955.00,A,4044.21629,N,07402.04920,W,0.076,,160418,,,D*66
$GPVTG,,T,,M,0.076,N,0.141,K,D*23
$GPGGA,214955.00,4044.21629,N,07402.04920,W,2,05,1.46,-3.0,M,-34.4,M,,0000*41
$GPGSA,A,3,17,19,30,07,08,,,,,,,,3.26,1.46,2.92*0D
$GPGSV,2,1,07,07,30,185,37,08,22,065,30,17,35,264,34,18,,,31*45
$GPGSV,2,2,07,19,15,255,36,30,49,211,24,48,15,249,36*4D
$GPGLL,4044.21629,N,07402.04920,W,214955.00,A,D*74

$GPRMC,214956.00,A,4044.21622,N,07402.04924,W,0.113,,160418,,,D*68
$GPVTG,,T,,M,0.113,N,0.210,K,D*26
$GPGGA,214956.00,4044.21622,N,07402.04924,W,2,05,1.46,-3.0,M,-34.4,M,,0000*4D
$GPGSA,A,3,17,19,30,07,08,,,,,,,,3.26,1.46,2.92*0D
$GPGSV,2,1,07,07,30,185,38,08,22,065,31,17,35,264,35,18,,,32*49
$GPGSV,2,2,07,19,15,255,37,30,49,211,21,48,15,249,36*49
$GPGLL,4044.21622,N,07402.04924,W,214956.00,A,D*78

$GPRMC,214957.00,A,4044.21614,N,07402.04926,W,0.037,,160418,,,D*69
$GPVTG,,T,,M,0.037,N,0.069,K,D*2D
$GPGGA,214957.00,4044.21614,N,07402.04926,W,2,05,1.45,-3.0,M,-34.4,M,,0000*48
$GPGSA,A,3,17,19,30,07,08,,,,,,,,3.26,1.45,2.92*0E
$GPGSV,2,1,07,07,30,185,38,08,22,065,30,17,35,264,35,18,,,32*48
$GPGSV,2,2,07,19,15,255,36,30,49,211,20,48,15,249,37*48
$GPGLL,4044.21614,N,07402.04926,W,214957.00,A,D*7E

$GPRMC,214958.00,A,4044.21603,N,07402.04928,W,0.061,,160418,,,D*6D
$GPVTG,,T,,M,0.061,N,0.114,K,D*25
$GPGGA,214958.00,4044.21603,N,07402.04928,W,2,05,1.45,-3.0,M,-34.4,M,,0000*4F
$GPGSA,A,3,17,19,30,07,08,,,,,,,,3.26,1.45,2.92*0E
$GPGSV,2,1,07,07,30,185,38,08,22,065,30,17,35,264,35,18,,,32*48
$GPGSV,2,2,07,19,15,255,36,30,49,211,18,48,15,249,37*43
$GPGLL,4044.21603,N,07402.04928,W,214958.00,A,D*79

$GPRMC,214959.00,A,4044.21594,N,07402.04929,W,0.052,,160418,,,D*60
$GPVTG,,T,,M,0.052,N,0.097,K,D*2F
$GPGGA,214959.00,4044.21594,N,07402.04929,W,2,05,1.45,-3.1,M,-34.4,M,,0000*43
$GPGSA,A,3,17,19,30,07,08,,,,,,,,3.26,1.45,2.92*0E
$GPGSV,2,1,07,07,30,185,38,08,22,065,29,17,35,264,35,18,,,32*40
$GPGSV,2,2,07,19,15,255,36,30,49,211,19,48,15,249,36*43
$GPGLL,4044.21594,N,07402.04929,W,214959.00,A,D*74

$GPRMC,215000.00,A,4044.21584,N,07402.04926,W,0.019,,160418,,,D*65
$GPVTG,,T,,M,0.019,N,0.035,K,D*28
$GPGGA,215000.00,4044.21584,N,07402.04926,W,2,05,1.45,-3.2,M,-34.4,M,,0000*4A
$GPGSA,A,3,17,19,30,07,08,,,,,,,,3.26,1.45,2.92*0E
$GPGSV,2,1,07,07,29,185,38,08,22,065,29,17,35,264,36,18,,,32*4B
$GPGSV,2,2,07,19,15,255,37,30,49,211,21,48,15,249,37*48
$GPGLL,4044.21584,N,07402.04926,W,215000.00,A,D*7E

$GPRMC,215001.00,A,4044.21571,N,07402.04927,W,0.077,,160418,,,D*67
$GPVTG,,T,,M,0.077,N,0.142,K,D*21
$GPGGA,215001.00,4044.21571,N,07402.04927,W,2,05,1.45,-3.4,M,-34.4,M,,0000*46
$GPGSA,A,3,17,19,30,07,08,,,,,,,,3.26,1.45,2.92*0E
$GPGSV,2,1,07,07,29,185,38,08,22,065,29,17,35,264,36,18,,,32*4B
$GPGSV,2,2,07,19,15,255,36,30,49,211,23,48,15,249,37*4B
$GPGLL,4044.21571,N,07402.04927,W,215001.00,A,D*74

$GPRMC,215002.00,A,4044.21557,N,07402.04929,W,0.093,,160418,,,D*64
$GPVTG,,T,,M,0.093,N,0.173,K,D*29
$GPGGA,215002.00,4044.21557,N,07402.04929,W,2,05,1.45,-3.9,M,-34.4,M,,0000*42
$GPGSA,A,3,17,19,30,07,08,,,,,,,,3.26,1.45,2.92*0E
$GPGSV,2,1,07,07,29,185,38,08,22,065,29,17,35,264,36,18,,,32*4B
$GPGSV,2,2,07,19,15,255,36,30,49,211,26,48,15,249,37*4E
$GPGLL,4044.21557,N,07402.04929,W,215002.00,A,D*7D

$GPRMC,215003.00,A,4044.21550,N,07402.04925,W,0.150,,160418,,,D*60
$GPVTG,,T,,M,0.150,N,0.278,K,D*2F
$GPGGA,215003.00,4044.21550,N,07402.04925,W,2,06,1.30,-4.1,M,-34.4,M,,0000*46
$GPGSA,A,3,17,19,30,07,08,18,,,,,,,2.76,1.30,2.44*0A
$GPGSV,2,1,07,07,29,185,38,08,22,065,29,17,35,264,36,18,44,056,32*78
$GPGSV,2,2,07,19,15,255,36,30,49,211,27,48,15,249,37*4F
$GPGLL,4044.21550,N,07402.04925,W,215003.00,A,D*77

$GPRMC,215004.00,A,4044.21539,N,07402.04926,W,0.066,,160418,,,D*6F
$GPVTG,,T,,M,0.066,N,0.122,K,D*27
$GPGGA,215004.00,4044.21539,N,07402.04926,W,2,06,1.30,-4.5,M,-34.4,M,,0000*49
$GPGSA,A,3,17,19,30,07,08,18,,,,,,,2.76,1.30,2.44*0A
$GPGSV,2,1,07,07,29,185,38,08,22,065,30,17,35,264,36,18,44,056,31*73
$GPGSV,2,2,07,19,15,255,36,30,49,211,29,48,15,249,37*41
$GPGLL,4044.21539,N,07402.04926,W,215004.00,A,D*7C

$GPRMC,215005.00,A,4044.21526,N,07402.04930,W,0.034,,160418,,,D*60
$GPVTG,,T,,M,0.034,N,0.062,K,D*25
$GPGGA,215005.00,4044.21526,N,07402.04930,W,2,06,1.30,-4.9,M,-34.4,M,,0000*4D
$GPGSA,A,3,17,19,30,07,08,18,,,,,,,2.76,1.30,2.44*0A
$GPGSV,2,1,07,07,29,185,38,08,22,065,30,17,35,264,36,18,44,056,30*72
$GPGSV,2,2,07,19,15,255,35,30,49,211,31,48,15,249,36*4A
$GPGLL,4044.21526,N,07402.04930,W,215005.00,A,D*74

$GPRMC,215006.00,A,4044.21511,N,07402.04935,W,0.089,,160418,,,D*64
$GPVTG,,T,,M,0.089,N,0.165,K,D*25
$GPGGA,215006.00,4044.21511,N,07402.04935,W,2,06,1.30,-5.6,M,-34.4,M,,0000*41
$GPGSA,A,3,17,19,30,07,08,18,,,,,,,2.76,1.30,2.44*0A
$GPGSV,2,1,07,07,29,185,38,08,22,065,30,17,35,264,36,18,44,056,29*7A
$GPGSV,2,2,07,19,15,255,35,30,49,211,32,48,15,249,36*49
$GPGLL,4044.21511,N,07402.04935,W,215006.00,A,D*76

$GPRMC,215007.00,A,4044.21495,N,07402.04935,W,0.018,,160418,,,D*60
$GPVTG,,T,,M,0.018,N,0.033,K,D*2F
$GPGGA,215007.00,4044.21495,N,07402.04935,W,2,06,1.30,-6.4,M,-34.4,M,,0000*4C
$GPGSA,A,3,17,19,30,07,08,18,,,,,,,2.76,1.30,2.44*0A
$GPGSV,2,1,07,07,29,185,38,08,22,065,30,17,35,264,37,18,44,056,28*7A
$GPGSV,2,2,07,19,15,255,35,30,49,211,32,48,15,249,37*48
$GPGLL,4044.21495,N,07402.04935,W,215007.00,A,D*7A

$GPRMC,215008.00,A,4044.21481,N,07402.04935,W,0.012,,160418,,,D*60
$GPVTG,,T,,M,0.012,N,0.022,K,D*25
$GPGGA,215008.00,4044.21481,N,07402.04935,W,2,06,1.30,-7.5,M,-34.4,M,,0000*46
$GPGSA,A,3,17,19,30,07,08,18,,,,,,,2.76,1.30,2.44*0A
$GPGSV,2,1,07,07,29,185,38,08,22,065,30,17,35,264,37,18,44,056,27*75
$GPGSV,2,2,07,19,15,255,35,30,49,211,33,48,15,249,37*49
$GPGLL,4044.21481,N,07402.04935,W,215008.00,A,D*70

$GPRMC,215009.00,A,4044.21467,N,07402.04936,W,0.047,,160418,,,D*6A
$GPVTG,,T,,M,0.047,N,0.087,K,D*2A
$GPGGA,215009.00,4044.21467,N,07402.04936,W,2,06,1.30,-8.2,M,-34.4,M,,0000*44
$GPGSA,A,3,17,19,30,07,08,18,,,,,,,2.76,1.30,2.44*0A
$GPGSV,2,1,07,07,29,185,38,08,22,065,30,17,35,264,37,18,44,056,26*74
$GPGSV,2,2,07,19,15,255,34,30,49,211,33,48,15,249,37*48
$GPGLL,4044.21467,N,07402.04936,W,215009.00,A,D*7A

$GPRMC,215010.00,A,4044.21456,N,07402.04937,W,0.122,,160418,,,D*63
$GPVTG,,T,,M,0.122,N,0.225,K,D*22
$GPGGA,215010.00,4044.21456,N,07402.04937,W,2,06,1.30,-9.0,M,-34.4,M,,0000*4C
$GPGSA,A,3,17,19,30,07,08,18,,,,,,,2.76,1.30,2.44*0A
$GPGSV,2,1,07,07,29,185,38,08,22,065,30,17,35,264,37,18,44,056,24*76
$GPGSV,2,2,07,19,15,255,34,30,49,211,33,48,15,249,37*48
$GPGLL,4044.21456,N,07402.04937,W,215010.00,A,D*71

$GPRMC,215011.00,A,4044.21445,N,07402.04938,W,0.062,,160418,,,D*6A
$GPVTG,,T,,M,0.062,N,0.114,K,D*26
$GPGGA,215011.00,4044.21445,N,07402.04938,W,2,06,1.30,-10.3,M,-34.4,M,,0000*7B
$GPGSA,A,3,17,19,30,07,08,18,,,,,,,2.76,1.30,2.44*0A
$GPGSV,2,1,07,07,29,185,38,08,22,065,30,17,35,264,37,18,44,056,21*73
$GPGSV,2,2,07,19,15,255,34,30,49,211,34,48,15,249,36*4E
$GPGLL,4044.21445,N,07402.04938,W,215011.00,A,D*7D

$GPRMC,215012.00,A,4044.21435,N,07402.04940,W,0.038,,160418,,,D*6E
$GPVTG,,T,,M,0.038,N,0.070,K,D*2A
$GPGGA,215012.00,4044.21435,N,07402.04940,W,2,06,1.30,-11.5,M,-34.4,M,,0000*77
$GPGSA,A,3,17,19,30,07,08,18,,,,,,,2.76,1.30,2.44*0A
$GPGSV,2,1,07,07,29,185,38,08,22,065,30,17,35,264,37,18,44,056,19*78
$GPGSV,2,2,07,19,15,255,33,30,49,211,34,48,15,249,37*48
$GPGLL,4044.21435,N,07402.04940,W,215012.00,A,D*76

$GPRMC,215013.00,A,4044.21425,N,07402.04942,W,0.088,,160418,,,D*67
$GPVTG,,T,,M,0.088,N,0.162,K,D*23
$GPGGA,215013.00,4044.21425,N,07402.04942,W,2,06,1.30,-12.5,M,-34.4,M,,0000*76
$GPGSA,A,3,17,19,30,07,08,18,,,,,,,2.76,1.30,2.44*0A
$GPGSV,2,1,07,07,29,185,38,08,22,065,30,17,35,264,37,18,44,056,18*79
$GPGSV,2,2,07,19,15,255,33,30,49,211,34,48,15,249,37*48
$GPGLL,4044.21425,N,07402.04942,W,215013.00,A,D*74

$GPRMC,215014.00,A,4044.21418,N,07402.04943,W,0.067,,160418,,,D*6E
$GPVTG,,T,,M,0.067,N,0.123,K,D*27
$GPGGA,215014.00,4044.21418,N,07402.04943,W,2,06,1.30,-13.3,M,-34.4,M,,0000*79
$GPGSA,A,3,17,19,30,07,08,18,,,,,,,2.76,1.30,2.44*0A
$GPGSV,2,1,07,07,29,185,38,08,22,065,30,17,35,264,37,18,44,056,21*73
$GPGSV,2,2,07,19,15,255,33,30,49,211,34,48,15,249,37*48
$GPGLL,4044.21418,N,07402.04943,W,215014.00,A,D*7C

$GPRMC,215015.00,A,4044.21411,N,07402.04943,W,0.107,,160418,,,D*61
$GPVTG,,T,,M,0.107,N,0.198,K,D*20
$GPGGA,215015.00,4044.21411,N,07402.04943,W,2,06,1.30,-14.2,M,-34.4,M,,0000*77
$GPGSA,A,3,17,19,30,07,08,18,,,,,,,2.76,1.30,2.44*0A
$GPGSV,2,1,08,01,65,085,,07,29,185,35,08,22,065,30,17,35,264,37*77
$GPGSV,2,2,08,18,44,056,23,19,15,255,32,30,49,211,34,48,15,249,37*7D
$GPGLL,4044.21411,N,07402.04943,W,215015.00,A,D*74

$GPRMC,215016.00,A,4044.21408,N,07402.04942,W,0.029,,160418,,,D*66
$GPVTG,,T,,M,0.029,N,0.054,K,D*2C
$GPGGA,215016.00,4044.21408,N,07402.04942,W,2,06,1.30,-15.1,M,-34.4,M,,0000*7F
$GPGSA,A,3,17,19,30,07,08,18,,,,,,,2.76,1.30,2.44*0A
$GPGSV,2,1,08,01,65,085,25,07,29,185,37,08,22,065,30,17,35,264,37*72
$GPGSV,2,2,08,18,44,056,26,19,15,255,32,30,49,211,34,48,15,249,36*79
$GPGLL,4044.21408,N,07402.04942,W,215016.00,A,D*7E

$GPRMC,215017.00,A,4044.21404,N,07402.04943,W,0.099,,160418,,,D*61
$GPVTG,,T,,M,0.099,N,0.184,K,D*2B
$GPGGA,215017.00,4044.21404,N,07402.04943,W,2,06,1.30,-15.8,M,-34.4,M,,0000*7A
$GPGSA,A,3,17,19,30,07,08,18,,,,,,,2.76,1.30,2.44*0A
$GPGSV,2,1,08,01,65,085,30,07,29,185,37,08,22,065,31,17,35,264,37*77
$GPGSV,2,2,08,18,44,056,27,19,15,255,32,30,49,211,34,48,15,249,37*79
$GPGLL,4044.21404,N,07402.04943,W,215017.00,A,D*72

$GPRMC,215018.00,A,4044.21399,N,07402.04943,W,0.052,,160418,,,D*6A
$GPVTG,,T,,M,0.052,N,0.097,K,D*2F
$GPGGA,215018.00,4044.21399,N,07402.04943,W,2,06,1.30,-16.4,M,-34.4,M,,0000*79
$GPGSA,A,3,17,19,30,07,08,18,,,,,,,2.76,1.30,2.44*0A
$GPGSV,2,1,08,01,65,085,30,07,29,185,37,08,22,065,32,17,35,264,37*74
$GPGSV,2,2,08,18,44,056,28,19,15,255,32,30,49,211,34,48,15,249,36*77
$GPGLL,4044.21399,N,07402.04943,W,215018.00,A,D*7E

$GPRMC,215019.00,A,4044.21395,N,07402.04939,W,0.089,,160418,,,D*6C
$GPVTG,,T,,M,0.089,N,0.166,K,D*26
$GPGGA,215019.00,4044.21395,N,07402.04939,W,2,06,1.30,-17.1,M,-34.4,M,,0000*7D
$GPGSA,A,3,17,19,30,07,08,18,,,,,,,2.76,1.30,2.44*0A
$GPGSV,2,1,08,01,65,085,30,07,29,185,37,08,22,065,32,17,35,264,38*7B
$GPGSV,2,2,08,18,44,056,29,19,15,255,32,30,49,211,34,48,15,249,37*77
$GPGLL,4044.21395,N,07402.04939,W,215019.00,A,D*7E

$GPRMC,215020.00,A,4044.21395,N,07402.04933,W,0.127,,160418,,,D*69
$GPVTG,,T,,M,0.127,N,0.236,K,D*25
$GPGGA,215020.00,4044.21395,N,07402.04933,W,2,06,1.30,-17.9,M,-34.4,M,,0000*75
$GPGSA,A,3,17,19,30,07,08,18,,,,,,,2.76,1.30,2.44*0A
$GPGSV,2,1,08,01,65,085,30,07,29,185,36,08,22,065,32,17,35,264,38*7A
$GPGSV,2,2,08,18,44,056,29,19,15,255,32,30,49,211,34,48,15,249,37*77
$GPGLL,4044.21395,N,07402.04933,W,215020.00,A,D*7E

$GPRMC,215021.00,A,4044.21398,N,07402.04925,W,0.074,,160418,,,D*65
$GPVTG,,T,,M,0.074,N,0.138,K,D*2F
$GPGGA,215021.00,4044.21398,N,07402.04925,W,2,06,1.30,-18.6,M,-34.4,M,,0000*7E
$GPGSA,A,3,17,19,30,07,08,18,,,,,,,2.77,1.30,2.44*0B
$GPGSV,2,1,08,01,65,085,30,07,29,185,36,08,22,065,33,17,35,264,38*7B
$GPGSV,2,2,08,18,44,056,30,19,15,255,33,30,49,211,35,48,15,249,37*7F
$GPGLL,4044.21398,N,07402.04925,W,215021.00,A,D*75

$GPRMC,215022.00,A,4044.21414,N,07402.04903,W,0.032,,160418,,,D*63
$GPVTG,,T,,M,0.032,N,0.058,K,D*2A
$GPGGA,215022.00,4044.21414,N,07402.04903,W,2,07,1.29,-17.6,M,-34.4,M,,0000*7C
$GPGSA,A,3,17,19,30,07,08,18,01,,,,,,2.32,1.29,1.92*0B
$GPGSV,2,1,08,01,65,085,31,07,29,185,36,08,22,065,33,17,35,264,38*7A
$GPGSV,2,2,08,18,44,056,30,19,15,255,33,30,49,211,34,48,15,249,37*7E
$GPGLL,4044.21414,N,07402.04903,W,215022.00,A,D*71

$GPRMC,215023.00,A,4044.21425,N,07402.04884,W,0.037,,160418,,,D*6B
$GPVTG,,T,,M,0.037,N,0.069,K,D*2D
$GPGGA,215023.00,4044.21425,N,07402.04884,W,2,07,1.29,-16.8,M,-34.4,M,,0000*7E
$GPGSA,A,3,17,19,30,07,08,18,01,,,,,,2.32,1.29,1.92*0B
$GPGSV,2,1,08,01,65,085,31,07,29,185,36,08,22,065,34,17,35,264,38*7D
$GPGSV,2,2,08,18,44,056,31,19,15,255,32,30,49,211,34,48,15,249,37*7E
$GPGLL,4044.21425,N,07402.04884,W,215023.00,A,D*7C

$GPRMC,215024.00,A,4044.21432,N,07402.04868,W,0.061,,160418,,,D*6B
$GPVTG,,T,,M,0.061,N,0.114,K,D*25
$GPGGA,215024.00,4044.21432,N,07402.04868,W,2,07,1.29,-16.6,M,-34.4,M,,0000*73
$GPGSA,A,3,17,19,30,07,08,18,01,,,,,,2.32,1.29,1.92*0B
$GPGSV,2,1,08,01,65,085,31,07,29,185,36,08,22,065,34,17,35,264,38*7D
$GPGSV,2,2,08,18,44,056,31,19,15,255,32,30,49,211,35,48,15,249,37*7F
$GPGLL,4044.21432,N,07402.04868,W,215024.00,A,D*7F

$GPRMC,215025.00,A,4044.21444,N,07402.04851,W,0.038,,160418,,,D*6D
$GPVTG,,T,,M,0.038,N,0.071,K,D*2B
$GPGGA,215025.00,4044.21444,N,07402.04851,W,2,07,1.29,-16.2,M,-34.4,M,,0000*7D
$GPGSA,A,3,17,19,30,07,08,18,01,,,,,,2.32,1.29,1.92*0B
$GPGSV,2,1,08,01,65,085,31,07,29,185,35,08,22,065,34,17,35,264,38*7E
$GPGSV,2,2,08,18,44,056,31,19,15,255,33,30,49,211,35,48,15,249,37*7E
$GPGLL,4044.21444,N,07402.04851,W,215025.00,A,D*75

$GPRMC,215026.00,A,4044.21453,N,07402.04837,W,0.026,,160418,,,D*67
$GPVTG,,T,,M,0.026,N,0.049,K,D*2F
$GPGGA,215026.00,4044.21453,N,07402.04837,W,2,07,1.29,-15.6,M,-34.4,M,,0000*7F
$GPGSA,A,3,17,19,30,07,08,18,01,,,,,,2.32,1.29,1.92*0B
$GPGSV,2,1,08,01,65,085,31,07,29,185,35,08,22,065,34,17,35,264,38*7E
$GPGSV,2,2,08,18,44,056,30,19,15,255,33,30,49,211,34,48,15,249,37*7E
$GPGLL,4044.21453,N,07402.04837,W,215026.00,A,D*70

$GPRMC,215027.00,A,4044.21460,N,07402.04824,W,0.016,,160418,,,D*67
$GPVTG,,T,,M,0.016,N,0.029,K,D*2A
$GPGGA,215027.00,4044.21460,N,07402.04824,W,2,07,1.29,-15.0,M,-34.4,M,,0000*7A
$GPGSA,A,3,17,19,30,07,08,18,01,,,,,,2.32,1.29,1.92*0B
$GPGSV,2,1,08,01,65,085,30,07,29,185,35,08,22,065,34,17,35,264,38*7F
$GPGSV,2,2,08,18,44,056,30,19,15,255,32,30,49,211,33,48,15,249,37*78
$GPGLL,4044.21460,N,07402.04824,W,215027.00,A,D*73

$GPRMC,215028.00,A,4044.21470,N,07402.04813,W,0.058,,160418,,,D*67
$GPVTG,,T,,M,0.058,N,0.107,K,D*2D
$GPGGA,215028.00,4044.21470,N,07402.04813,W,2,07,1.29,-14.5,M,-34.4,M,,0000*74
$GPGSA,A,3,17,19,30,07,08,18,01,,,,,,2.32,1.29,1.92*0B
$GPGSV,2,1,08,01,65,085,30,07,29,185,35,08,22,065,34,17,35,264,38*7F
$GPGSV,2,2,08,18,44,056,30,19,15,255,32,30,49,211,33,48,15,249,36*79
$GPGLL,4044.21470,N,07402.04813,W,215028.00,A,D*79

$GPRMC,215029.00,A,4044.21481,N,07402.04803,W,0.006,,160418,,,D*62
$GPVTG,,T,,M,0.006,N,0.011,K,D*20
$GPGGA,215029.00,4044.21481,N,07402.04803,W,2,07,1.29,-14.0,M,-34.4,M,,0000*7F
$GPGSA,A,3,17,19,30,07,08,18,01,,,,,,2.32,1.29,1.92*0B
$GPGSV,2,1,08,01,65,085,29,07,29,185,35,08,22,065,35,17,35,264,37*79
$GPGSV,2,2,08,18,44,056,29,19,15,255,32,30,49,211,33,48,15,249,37*70
$GPGLL,4044.21481,N,07402.04803,W,215029.00,A,D*77

$GPRMC,215030.00,A,4044.21490,N,07402.04795,W,0.029,,160418,,,D*67
$GPVTG,,T,,M,0.029,N,0.055,K,D*2D
$GPGGA,215030.00,4044.21490,N,07402.04795,W,2,07,1.29,-13.5,M,-34.4,M,,0000*75
$GPGSA,A,3,17,19,30,07,08,18,01,,,,,,2.31,1.29,1.92*08
$GPGSV,2,1,08,01,65,085,29,07,29,185,36,08,22,065,35,17,35,264,37*7A
$GPGSV,2,2,08,18,44,056,28,19,15,255,32,30,49,211,32,48,15,249,37*70
$GPGLL,4044.21490,N,07402.04795,W,215030.00,A,D*7F

$GPRMC,215031.00,A,4044.21498,N,07402.04787,W,0.040,,160418,,,D*62
$GPVTG,,T,,M,0.040,N,0.074,K,D*21
$GPGGA,215031.00,4044.21498,N,07402.04787,W,2,07,1.29,-13.0,M,-34.4,M,,0000*7A
$GPGSA,A,3,17,19,30,07,08,18,01,,,,,,2.31,1.29,1.92*08
$GPGSV,2,1,08,01,65,085,29,07,29,185,36,08,22,065,35,17,35,264,37*7A
$GPGSV,2,2,08,18,44,056,26,19,15,255,32,30,49,211,32,48,15,249,37*7E
$GPGLL,4044.21498,N,07402.04787,W,215031.00,A,D*75

$GPRMC,215032.00,A,4044.21509,N,07402.04779,W,0.050,,160418,,,D*68
$GPVTG,,T,,M,0.050,N,0.092,K,D*28
$GPGGA,215032.00,4044.21509,N,07402.04779,W,2,07,1.29,-12.6,M,-34.4,M,,0000*76
$GPGSA,A,3,17,19,30,07,08,18,01,,,,,,2.31,1.29,1.92*08
$GPGSV,2,1,08,01,65,085,28,07,29,185,36,08,22,065,35,17,35,264,37*7B
$GPGSV,2,2,08,18,44,056,25,19,15,255,32,30,49,211,31,48,15,249,37*7E
$GPGLL,4044.21509,N,07402.04779,W,215032.00,A,D*7E

$GPRMC,215033.00,A,4044.21520,N,07402.04771,W,0.029,,160418,,,D*64
$GPVTG,,T,,M,0.029,N,0.054,K,D*2C
$GPGGA,215033.00,4044.21520,N,07402.04771,W,2,07,1.29,-12.1,M,-34.4,M,,0000*73
$GPGSA,A,3,17,19,30,07,08,18,01,,,,,,2.31,1.29,1.92*08
$GPGSV,2,1,08,01,65,085,28,07,29,185,36,08,22,065,36,17,35,264,37*78
$GPGSV,2,2,08,18,44,056,23,19,15,255,31,30,49,211,30,48,15,249,37*7A
$GPGLL,4044.21520,N,07402.04771,W,215033.00,A,D*7C

$GPRMC,215034.00,A,4044.21531,N,07402.04766,W,0.018,,160418,,,D*67
$GPVTG,,T,,M,0.018,N,0.033,K,D*2F
$GPGGA,215034.00,4044.21531,N,07402.04766,W,2,07,1.29,-11.9,M,-34.4,M,,0000*79
$GPGSA,A,3,17,19,30,07,08,18,01,,,,,,2.31,1.29,1.92*08
$GPGSV,2,1,08,01,65,085,28,07,29,185,36,08,22,065,36,17,35,264,36*79
$GPGSV,2,2,08,18,44,056,21,19,15,255,31,30,49,211,29,48,15,249,36*71
$GPGLL,4044.21531,N,07402.04766,W,215034.00,A,D*7D

$GPRMC,215035.00,A,4044.21540,N,07402.04763,W,0.019,,160418,,,D*64
$GPVTG,,T,,M,0.019,N,0.035,K,D*28
$GPGGA,215035.00,4044.21540,N,07402.04763,W,2,07,1.29,-11.8,M,-34.4,M,,0000*7A
$GPGSA,A,3,17,19,30,07,08,18,01,,,,,,2.31,1.29,1.92*08
$GPGSV,2,1,08,01,65,085,27,07,29,185,36,08,22,065,36,17,35,264,36*76
$GPGSV,2,2,08,18,44,056,18,19,15,255,32,30,49,211,29,48,15,249,36*78
$GPGLL,4044.21540,N,07402.04763,W,215035.00,A,D*7F

$GPRMC,215036.00,A,4044.21551,N,07402.04761,W,0.062,,160418,,,D*69
$GPVTG,,T,,M,0.062,N,0.114,K,D*26
$GPGGA,215036.00,4044.21551,N,07402.04761,W,2,07,1.29,-11.6,M,-34.4,M,,0000*75
$GPGSA,A,3,17,19,30,07,08,18,01,,,,,,2.31,1.29,1.92*08
$GPGSV,2,1,08,01,65,085,27,07,29,185,36,08,22,065,35,17,35,264,35*76
$GPGSV,2,2,08,18,44,056,16,19,15,255,31,30,49,211,28,48,15,249,36*74
$GPGLL,4044.21551,N,07402.04761,W,215036.00,A,D*7E

$GPRMC,215037.00,A,4044.21565,N,07402.04759,W,0.037,,160418,,,D*64
$GPVTG,,T,,M,0.037,N,0.069,K,D*2D
$GPGGA,215037.00,4044.21565,N,07402.04759,W,2,07,1.29,-11.0,M,-34.4,M,,0000*7E
$GPGSA,A,3,17,19,30,07,08,18,01,,,,,,2.31,1.29,1.92*08
$GPGSV,2,1,08,01,65,085,28,07,29,185,37,08,22,065,36,17,35,264,36*78
$GPGSV,2,2,08,18,44,056,16,19,15,255,32,30,49,211,27,48,15,249,37*79
$GPGLL,4044.21565,N,07402.04759,W,215037.00,A,D*73

$GPRMC,215038.00,A,4044.21579,N,07402.04761,W,0.048,,160418,,,D*65
$GPVTG,,T,,M,0.048,N,0.088,K,D*2A
$GPGGA,215038.00,4044.21579,N,07402.04761,W,2,07,1.29,-10.7,M,-34.4,M,,0000*71
$GPGSA,A,3,17,19,30,07,08,18,01,,,,,,2.31,1.29,1.92*08
$GPGSV,2,1,08,01,65,085,28,07,29,185,37,08,22,065,36,17,35,264,36*78
$GPGSV,2,2,08,18,44,056,16,19,15,255,31,30,49,211,26,48,15,249,37*7B
$GPGLL,4044.21579,N,07402.04761,W,215038.00,A,D*7A

$GPRMC,215039.00,A,4044.21585,N,07402.04759,W,0.049,,160418,,,D*6D
$GPVTG,,T,,M,0.049,N,0.091,K,D*23
$GPGGA,215039.00,4044.21585,N,07402.04759,W,2,07,1.29,-10.1,M,-34.4,M,,0000*7E
$GPGSA,A,3,17,19,30,07,08,18,01,,,,,,2.31,1.29,1.92*08
$GPGSV,2,1,08,01,65,085,29,07,29,185,37,08,22,065,36,17,35,264,36*79
$GPGSV,2,2,08,18,44,056,18,19,15,255,31,30,49,211,25,48,15,249,37*76
$GPGLL,4044.21585,N,07402.04759,W,215039.00,A,D*73

$GPRMC,215040.00,A,4044.21591,N,07402.04757,W,0.064,,160418,,,D*67
$GPVTG,,T,,M,0.064,N,0.118,K,D*2C
$GPGGA,215040.00,4044.21591,N,07402.04757,W,2,07,1.29,-9.4,M,-34.4,M,,0000*46
$GPGSA,A,3,17,19,30,07,08,18,01,,,,,,2.31,1.29,1.92*08
$GPGSV,2,1,08,01,65,085,30,07,29,185,36,08,22,065,36,17,35,264,36*70
$GPGSV,2,2,08,18,44,056,20,19,15,255,31,30,49,211,22,48,15,249,37*7A
$GPGLL,4044.21591,N,07402.04757,W,215040.00,A,D*76

$GPRMC,215041.00,A,4044.21599,N,07402.04755,W,0.016,,160418,,,D*69
$GPVTG,,T,,M,0.016,N,0.029,K,D*2A
$GPGGA,215041.00,4044.21599,N,07402.04755,W,2,07,1.29,-8.6,M,-34.4,M,,0000*4E
$GPGSA,A,3,17,19,30,07,08,18,01,,,,,,2.31,1.29,1.92*08
$GPGSV,2,1,08,01,65,085,30,07,29,185,36,08,22,065,36,17,35,264,36*70
$GPGSV,2,2,08,18,44,056,22,19,15,255,31,30,49,211,20,48,15,249,36*7B
$GPGLL,4044.21599,N,07402.04755,W,215041.00,A,D*7D

$GPRMC,215042.00,A,4044.21608,N,07402.04754,W,0.048,,160418,,,D*6B
$GPVTG,,T,,M,0.048,N,0.089,K,D*2B
$GPGGA,215042.00,4044.21608,N,07402.04754,W,2,07,1.29,-7.7,M,-34.4,M,,0000*49
$GPGSA,A,3,17,19,30,07,08,18,01,,,,,,2.31,1.29,1.92*08
$GPGSV,2,1,08,01,65,085,31,07,29,185,36,08,22,065,36,17,35,264,36*71
$GPGSV,2,2,08,18,44,056,22,19,15,255,31,30,49,211,17,48,15,249,37*7E
$GPGLL,4044.21608,N,07402.04754,W,215042.00,A,D*74

$GPRMC,215043.00,A,4044.21613,N,07402.04754,W,0.062,,160418,,,D*68
$GPVTG,,T,,M,0.062,N,0.115,K,D*27
$GPGGA,215043.00,4044.21613,N,07402.04754,W,2,07,1.29,-7.0,M,-34.4,M,,0000*45
$GPGSA,A,3,17,19,30,07,08,18,01,,,,,,2.31,1.29,1.92*08
$GPGSV,2,1,08,01,65,085,31,07,29,185,36,08,22,065,36,17,35,264,36*71
$GPGSV,2,2,08,18,44,056,23,19,15,255,31,30,49,211,15,48,15,249,37*7D
$GPGLL,4044.21613,N,07402.04754,W,215043.00,A,D*7F

$GPRMC,215044.00,A,4044.21618,N,07402.04753,W,0.044,,160418,,,D*67
$GPVTG,,T,,M,0.044,N,0.082,K,D*2C
$GPGGA,215044.00,4044.21618,N,07402.04753,W,2,07,1.29,-6.2,M,-34.4,M,,0000*4D
$GPGSA,A,3,17,19,30,07,08,18,01,,,,,,2.31,1.29,1.92*08
$GPGSV,2,1,08,01,65,085,31,07,29,185,36,08,22,065,35,17,35,264,36*72
$GPGSV,2,2,08,18,44,056,24,19,15,255,30,30,49,211,11,48,15,249,36*7E
$GPGLL,4044.21618,N,07402.04753,W,215044.00,A,D*74

$GPRMC,215045.00,A,4044.21624,N,07402.04753,W,0.012,,160418,,,D*6A
$GPVTG,,T,,M,0.012,N,0.023,K,D*24
$GPGGA,215045.00,4044.21624,N,07402.04753,W,2,07,1.29,-5.5,M,-34.4,M,,0000*47
$GPGSA,A,3,17,19,30,07,08,18,01,,,,,,2.31,1.29,1.92*08
$GPGSV,2,1,08,01,65,085,31,07,29,185,36,08,22,065,35,17,35,264,36*72
$GPGSV,2,2,08,18,44,056,25,19,15,255,30,30,49,211,10,48,15,249,37*7F
$GPGLL,4044.21624,N,07402.04753,W,215045.00,A,D*7A

$GPRMC,215046.00,A,4044.21629,N,07402.04752,W,0.028,,160418,,,D*6C
$GPVTG,,T,,M,0.028,N,0.052,K,D*2B
$GPGGA,215046.00,4044.21629,N,07402.04752,W,2,07,1.29,-4.7,M,-34.4,M,,0000*4B
$GPGSA,A,3,17,19,30,07,08,18,01,,,,,,2.31,1.29,1.92*08
$GPGSV,2,1,08,01,65,085,31,07,29,185,36,08,22,065,35,17,35,264,36*72
