$GPTXT,01,01,02,u-blox ag - www.u-blox.com*50
$GPTXT,01,01,02,HW  UBX-G70xx   00070000 *77
$GPTXT,01,01,02,ROM CORE 1.00 (59842) Jun 27 2012 17:43:52*59
$GPTXT,01,01,02,PROTVER 14.00*1E
$GPTXT,01,01,02,ANTSUPERV=AC SD PDoS SR*20
$GPTXT,01,01,02,ANTSTATUS=DONTKNOW*33
$GPTXT,01,01,02,LLC FFFFFFFF-FFFFFFED-FFFFFFFF-FFFFFFFF-FFFFFFF9*50

$GPRMC,021938.98,V,,,,,,,160418,,,N*77
$GPVTG,,,,,,,,,N*30
$GPGGA,021938.98,,,,,0,00,99.99,,,,,,*66
$GPGSA,A,1,,,,,,,,,,,,,99.99,99.99,99.99*30
$GPGSV,3,1,09,02,59,293,,05,28,208,,06,64,035,,09,24,092,*77
$GPGSV,3,2,09,12,45,284,,17,40,119,,23,15,053,,25,17,319,*7F
$GPGSV,3,3,09,46,17,246,*44
$GPGLL,,,,,021938.98,V,N*4A

$GPTXT,01,01,02,ANTSTATUS=INIT*25

$GPRMC,021940.00,V,,,,,,,160418,,,N*79
$GPVTG,,,,,,,,,N*30
$GPGGA,021940.00,,,,,0,00,99.99,,,,,,*68
$GPGSA,A,1,,,,,,,,,,,,,99.99,99.99,99.99*30
$GPGSV,3,1,09,02,59,293,31,05,28,208,30,06,64,035,,09,24,092,22*76
$GPGSV,3,2,09,12,45,284,26,17,40,119,36,23,15,053,,25,17,319,*7E
$GPGSV,3,3,09,46,17,246,37*40
$GPGLL,,,,,021940.00,V,N*44

$GPTXT,01,01,02,ANTSTATUS=OK*3B

$GPRMC,021941.00,V,,,,,,,160418,,,N*78
$GPVTG,,,,,,,,,N*30
$GPGGA,021941.00,,,,,0,00,99.99,,,,,,*69
$GPGSA,A,1,,,,,,,,,,,,,99.99,99.99,99.99*30
$GPGSV,3,1,09,02,59,293,30,05,28,208,30,06,64,035,,09,24,092,22*77
$GPGSV,3,2,09,12,45,284,25,17,40,119,37,23,15,053,,25,17,319,22*7C
$GPGSV,3,3,09,46,17,246,38*4F
$GPGLL,,,,,021941.00,V,N*45

$GPRMC,021941.50,V,,,,,,,160418,,,N*7D
$GPVTG,,,,,,,,,N*30
$GPGGA,021941.50,,,,,0,03,1.87,,,,,,*51
$GPGSA,A,1,12,17,05,,,,,,,,,,2.12,1.87,1.00*0E
$GPGSV,3,1,09,02,59,293,30,05,28,208,30,06,64,035,,09,24,092,22*77
$GPGSV,3,2,09,12,45,284,25,17,40,119,37,23,15,053,26,25,17,319,23*79
$GPGSV,3,3,09,46,17,246,38*4F
$GPGLL,,,,,021941.50,V,N*40

$GPRMC,021942.00,V,,,,,,,160418,,,N*7B
$GPVTG,,,,,,,,,N*30
$GPGGA,021942.00,,,,,0,03,1.87,,,,,,*57
$GPGSA,A,1,12,17,05,,,,,,,,,,2.12,1.87,1.00*0E
$GPGSV,3,1,09,02,59,293,30,05,28,208,29,06,64,035,,09,24,092,22*7F
$GPGSV,3,2,09,12,45,284,25,17,40,119,37,23,15,053,25,25,17,319,22*7B
$GPGSV,3,3,09,46,17,246,37*40
$GPGLL,,,,,021942.00,V,N*46

$GPRMC,021943.00,V,,,,,,,160418,,,N*7A
$GPVTG,,,,,,,,,N*30
$GPGGA,021943.00,,,,,0,04,1.47,,,,,,*5D
$GPGSA,A,1,12,17,05,25,,,,,,,,,3.71,1.47,3.40*07
$GPGSV,3,1,09,02,59,293,29,05,28,208,29,06,64,035,,09,24,092,22*77
$GPGSV,3,2,09,12,45,284,26,17,40,119,37,23,15,053,24,25,17,319,23*78
$GPGSV,3,3,09,46,17,246,38*4F
$GPGLL,,,,,021943.00,V,N*47

$GPRMC,021944.00,A,4044.22985,N,07402.02574,W,0.188,,160418,,,A*66
$GPVTG,,T,,M,0.188,N,0.348,K,A*2D
$GPGGA,021944.00,4044.22985,N,07402.02574,W,1,05,1.19,-42.9,M,-34.4,M,,*71
$GPGSA,A,3,12,17,05,25,23,,,,,,,,3.22,1.19,2.99*0C
$GPGSV,3,1,09,02,59,293,29,05,28,208,29,06,64,035,,09,24,092,22*77
$GPGSV,3,2,09,12,45,284,26,17,40,119,37,23,15,053,22,25,17,319,24*79
$GPGSV,3,3,09,46,17,246,37*40
$GPGLL,4044.22985,N,07402.02574,W,021944.00,A,A*74

$GPRMC,021945.00,A,4044.22985,N,07402.02576,W,0.174,,160418,,,A*66
$GPVTG,,T,,M,0.174,N,0.322,K,A*22
$GPGGA,021945.00,4044.22985,N,07402.02576,W,1,05,1.19,-39.6,M,-34.4,M,,*71
$GPGSA,A,3,12,17,05,25,23,,,,,,,,3.22,1.19,2.99*0C
$GPGSV,3,1,09,02,59,293,28,05,28,208,28,06,64,035,,09,24,092,22*77
$GPGSV,3,2,09,12,45,284,26,17,40,119,37,23,15,053,22,25,17,319,24*79
$GPGSV,3,3,09,46,17,246,37*40
$GPGLL,4044.22985,N,07402.02576,W,021945.00,A,A*77

$GPRMC,021946.00,A,4044.22974,N,07402.02590,W,0.268,,160418,,,A*6D
$GPVTG,,T,,M,0.268,N,0.496,K,A*24
$GPGGA,021946.00,4044.22974,N,07402.02590,W,1,05,1.19,-34.9,M,-34.4,M,,*76
$GPGSA,A,3,12,17,05,25,23,,,,,,,,3.22,1.19,2.99*0C
$GPGSV,3,1,09,02,59,293,28,05,28,208,28,06,64,035,,09,24,092,22*77
$GPGSV,3,2,09,12,45,284,27,17,40,119,37,23,15,053,22,25,17,319,25*79
$GPGSV,3,3,09,46,17,246,38*4F
$GPGLL,4044.22974,N,07402.02590,W,021946.00,A,A*72

$GPRMC,021947.00,A,4044.22909,N,07402.02579,W,0.056,,160418,,,A*6E
$GPVTG,,T,,M,0.056,N,0.104,K,A*25
$GPGGA,021947.00,4044.22909,N,07402.02579,W,1,05,1.19,-31.6,M,-34.4,M,,*70
$GPGSA,A,3,12,17,05,25,23,,,,,,,,3.22,1.19,2.99*0C
$GPGSV,3,1,09,02,59,293,28,05,28,208,28,06,64,035,,09,24,092,22*77
$GPGSV,3,2,09,12,45,284,28,17,40,119,37,23,15,053,23,25,17,319,26*74
$GPGSV,3,3,09,46,17,246,37*40
$GPGLL,4044.22909,N,07402.02579,W,021947.00,A,A*7E

$GPRMC,021948.00,A,4044.22860,N,07402.02588,W,0.145,,160418,,,A*62
$GPVTG,,T,,M,0.145,N,0.268,K,A*2F
$GPGGA,021948.00,4044.22860,N,07402.02588,W,1,05,1.19,-27.7,M,-34.4,M,,*79
$GPGSA,A,3,12,17,05,25,23,,,,,,,,3.22,1.19,2.99*0C
$GPGSV,3,1,09,02,59,293,27,05,28,208,28,06,64,035,,09,24,092,21*7B
$GPGSV,3,2,09,12,45,284,28,17,40,119,37,23,15,053,24,25,17,319,26*73
$GPGSV,3,3,09,46,17,246,37*40
$GPGLL,4044.22860,N,07402.02588,W,021948.00,A,A*71

















